StateCo,StateAb,DivName,DivId,DivCo,PPName,Status,PremisesName,Address1,Address2,Address3,Locality,AddrStateAb,Postcode,PPId,AdvBoothLocation,AdvGateAccess,EntrancesDesc,Lat,Long,CCD,WheelchairAccess,OrdVoteEst,DecVoteEst,NoOrdIssuingOff,NoOfDecIssuingOff
2,NSW,Banks,103,1,Allawah,Current,P J Ferry Reserve Hall,cnr Bellevue Pde & Blakesley Rd,,,CARLTON,NSW,2218,31,,,Blakesley Rd Bellevue Pde,-33.9767897,151.1148974,1361509,Assisted,1608,160,4,2
2,NSW,Banks,103,1,Allawah South,Current,St Raphael's Catholic Church Hall,84 George St, ,,SOUTH HURSTVILLE,NSW,2221,67,,,Russell La George St,-33.9756,151.111,1361510,None,1275,84,3,1
2,NSW,Banks,103,1,Beverly Hills North (Banks),Current,Beverly Hills North Public School,cnr Shorter Ave & King Georges Rd,,,BEVERLY HILLS,NSW,2209,56500,,,Entrance:Shorter Ave,-33.9413,151.075,1350302,None,532,0,2,0
2,NSW,Banks,103,1,Beverly Hills South,Current,Beverly Hills Public School,cnr Stoney Creek & King Georges Rds, ,,BEVERLY HILLS,NSW,2209,2646,,,King Georges Rd,-33.9528,151.085,1360804,Assisted,1618,151,4,2
2,NSW,Banks,103,1,Blakehurst,Abolition,,,,,,,,36,,,,,,0,,0,0,0,0
2,NSW,Banks,103,1,Blakehurst North,Current,Blakehurst High School,270A Woniora Rd, ,,BLAKEHURST,NSW,2221,46,,,Woniora Rd,-33.9814,151.113,1361602,Assisted,1002,120,3,2
2,NSW,Banks,103,1,Blakehurst South,Current,Bald Face Public School,84 Stuart St, ,,BLAKEHURST,NSW,2221,33,,,Stuart St,-33.996455,151.1066889,1361404,Assisted,1866,110,4,1
2,NSW,Banks,103,1,Carlton South (Banks),Current,Carlton South Public School,Jubilee Avenue, ,,CARLTON,NSW,2218,56472,,Jubilee Ave & Ecole St,"School gate in Jubilee Avenue, Carlton School gate in Ecole Street, Carlton",-33.9727,151.128,1361703,Assisted,504,0,2,0
2,NSW,Banks,103,1,Carlton West,Appointment,St Cuthbert's Anglican Church Hall,34 Park Rd, ,,CARLTON,NSW,2218,65,,,Park Rd,-33.9763447,151.1206652,1361704,Assisted,1560,384,4,4
2,NSW,Banks,103,1,Carlton West (Banks),Abolition,St Cuthbert's Anglican Church Hall,34 Park Rd, ,,CARLTON,NSW,2218,65,,,,,,0,,0,0,0,0
2,NSW,Banks,103,1,Connells Point,Current,Connells Point Public School,Riverview Ave, ,,CONNELLS POINT,NSW,2221,42,,,Riverview Ave,-33.9855,151.1,1361410,Assisted,2913,203,6,2
2,NSW,Banks,103,1,Hurstville,Current,Hurstville Senior Citizens Centre,91 Queens Rd,,,HURSTVILLE,NSW,2220,2663,,,Queens Rd,-33.9642,151.102,1360709,Full,2442,261,6,3
2,NSW,Banks,103,1,Hurstville Central,Abolition,,,,,,,,44,,,,,,0,,0,0,0,0
2,NSW,Banks,103,1,Hurstville East,Current,Hurstville Public School,Forest Rd, ,,HURSTVILLE,NSW,2220,2664,,,Forest Rd Orange St,-33.9641,151.111,1360704,None,2274,377,6,4
2,NSW,Banks,103,1,Hurstville Grove,Current,St Aidan's Anglican Church Hall,119 Lansdowne St, ,,HURSTVILLE GROVE,NSW,2220,45,,,Hillcrest Ave,-33.9744,151.092,1361207,None,2517,169,6,2
2,NSW,Banks,103,1,Hurstville North,Current,Kingsway Scout Hall,Barnards Ave,,,HURSTVILLE,NSW,2220,2665,,,Barnards Ave,-33.9544,151.096,1360605,None,2363,217,5,2
2,NSW,Banks,103,1,Hurstville South,Appointment,Hurstville South Public School,Maher St, ,,HURSTVILLE,NSW,2220,43,,,Maher St,-33.9726,151.099,1361214,Assisted,1032,74,3,1
2,NSW,Banks,103,1,Lugarno,Current,Lugarno Public School,Old Forest Rd,,,LUGARNO,NSW,2210,4,,,Old Forest Rd,-33.985015,151.0454806,1361106,Assisted,3109,192,7,2
2,NSW,Banks,103,1,Mortdale Central,Current,Mortdale Pensioners Welfare Club,76 Pitt St,,,MORTDALE,NSW,2223,55,,,Pitt St,-33.9729046,151.0773353,1360910,Full,1970,140,4,2
2,NSW,Banks,103,1,Mortdale East,Current,Mortdale Public School,Coleborne Ave, ,,MORTDALE,NSW,2223,56,,,Coleborne Ave,-33.9727,151.081,1361302,Assisted,1593,150,4,2
2,NSW,Banks,103,1,Mortdale Heights,Current,Mortdale Girl Guides Hall,Beatty St,,,MORTDALE,NSW,2223,57,,,Beatty St,-33.9705,151.067,1361001,Assisted,1169,66,3,1
2,NSW,Banks,103,1,Mortdale West,Current,Penshurst West Public School,Scott St,,,MORTDALE,NSW,2223,5,,,Scott St,-33.9615619,151.0731878,1360305,None,2312,198,5,2
2,NSW,Banks,103,1,Narwee,Current,Narwee Public School,61-65 Broad Arrow Rd,,,NARWEE,NSW,2209,6,,,Broad Arrow Rd,-33.9482,151.069,1350304,Assisted,3082,269,7,3
2,NSW,Banks,103,1,Oatley,Current,Oatley Public School,Neville St, ,,OATLEY,NSW,2223,58,,,Letitia St,-33.9847,151.081,1361312,Assisted,2837,197,6,2
2,NSW,Banks,103,1,Oatley West,Current,Oatley West Public School,Oatley Park Ave,,,OATLEY,NSW,2223,59,,,Oatley Park Ave,-33.9796,151.065,1361007,Assisted,2602,145,6,2
2,NSW,Banks,103,1,Padstow,Current,Padstow Park Public School,Segers Ave,,,PADSTOW,NSW,2211,7,,,Faraday Rd,-33.9542,151.031,1342504,None,3275,372,7,4
2,NSW,Banks,103,1,Padstow East,Current,Padstow Senior Citizens Centre,17 Cahors Rd,,,PADSTOW,NSW,2211,8,,,Cahors Rd,-33.949,151.03,1342106,Assisted,1395,230,3,3
2,NSW,Banks,103,1,Padstow North,Current,Padstow TAFE,Raine Rd,,,PADSTOW,NSW,2211,9,,,Raine Rd,-33.947343,151.0258927,1342108,Assisted,1491,122,3,2
2,NSW,Banks,103,1,Padstow South,Current,Padstow Heights Public School,Chamberlain Rd,,,PADSTOW HEIGHTS,NSW,2211,10,,,Chamberlain Rd Henry Kendall Ave,-33.9664348,151.0305364,1342607,None,2887,225,6,3
2,NSW,Banks,103,1,Peakhurst East,Current,Peakhurst Public School,Bonds Rd,,,PEAKHURST,NSW,2210,16,,,Bailey Pde,-33.9553,151.061,1360107,Assisted,2216,177,5,2
2,NSW,Banks,103,1,Peakhurst South,Current,Peakhurst South Public School,Pindari Rd,,,PEAKHURST,NSW,2210,17,,,Pindari Rd,-33.9728147,151.0555257,1361102,Full,2046,119,5,2
2,NSW,Banks,103,1,Peakhurst West,Current,Peakhurst West Public School,Ogilvy St,,,PEAKHURST,NSW,2210,18,,,Ogilvy St,-33.9616492,151.0489593,1360203,None,2861,235,6,3
2,NSW,Banks,103,1,Penshurst,Current,Penshurst Public School,Arcadia St, ,,PENSHURST,NSW,2222,19,,,Arcadia St,-33.9625909,151.0875342,1360806,Assisted,1882,176,4,2
2,NSW,Banks,103,1,Penshurst Central,Current,Penshurst Girls Campus,2 Austral St,,,PENSHURST,NSW,2222,60,,,Austral St,-33.9641,151.087,1360308,None,2525,247,6,3
2,NSW,Banks,103,1,Punchbowl (Banks),Current,Punchbowl Public School,1333 Canterbury Rd,,,PUNCHBOWL,NSW,2196,23,Watson use hall Banks use classrooms,Viola St & Rossmore Ave,Entrances:Viola St           Rossmore Ave- 2 gates,-33.9307,151.056,1350206,None,1421,248,4,3
2,NSW,Banks,103,1,Revesby (Banks),Current,Y.M.C.A. Centre,184 The River Rd,,,REVESBY,NSW,2212,24,,,Hedlund St,-33.9542157,151.0166996,1342501,Assisted,887,174,2,2
2,NSW,Banks,103,1,Revesby North (Banks),Current,Revesby Public School,Victoria St,,,REVESBY,NSW,2212,25,,,Victoria St,-33.9447,151.017,1342202,None,2299,290,5,3
2,NSW,Banks,103,1,Riverwood East,Current,Hannans Road Public School,Hannans Rd,,,RIVERWOOD,NSW,2210,3,,,Hannans Rd,-33.9459,151.058,1350210,Assisted,1974,287,4,3
2,NSW,Banks,103,1,Riverwood North,Current,Riverwood Public School,Union St,,,RIVERWOOD,NSW,2210,27,,,Union St,-33.9476795,151.047088,1350108,Assisted,1467,153,3,2
2,NSW,Banks,103,1,Riverwood South,Current,St Andrew's Church Hall,9 Littleton St,,,RIVERWOOD,NSW,2210,28,,,Littleton St,-33.9524734,151.0532173,1360103,None,1852,146,4,2
2,NSW,Banks,103,1,South Hurstville,Current,St Mark's Church Hall,10 The Mall, ,,SOUTH HURSTVILLE,NSW,2221,35,,,The Mall,-33.9797,151.106,1361411,Assisted,1127,90,3,1
2,NSW,Banks,103,1,South Hurstville South,Abolition,Hurstville South Public School,Maher St, ,,HURSTVILLE,NSW,2220,43,,,,,,0,,0,0,0,0
2,NSW,Banks,103,1,Sydney (Banks),Current,Sydney Town Hall,George St, ,,SYDNEY,NSW,2000,14011,,Sydney Town Hall Square,via Town Hall Square,-33.8735,151.207,1400114,Assisted,180,0,0,0
2,NSW,Barton,104,2,Arncliffe,Current,Arncliffe Community Centre Coronation Hall,23 Barden St,,,ARNCLIFFE,NSW,2205,32,,,Entrance: Barden Street,-33.938,151.144,1362505,Full,1270,143,3,2
2,NSW,Barton,104,2,Arncliffe Central,Current,Arncliffe Public School,168 Princes Hwy,,,ARNCLIFFE,NSW,2205,34,School Hall,Segenhoe Street,Entrance by Segenhoe Avenue only,-33.9406,151.147,1362607,Assisted,1362,139,3,2
2,NSW,Barton,104,2,Arncliffe West,Current,Athelstane Public School,Athelstane Ave, ,,ARNCLIFFE,NSW,2205,2642,,,Entrance: Gates in Athelstane Avenue and Wollongong Road,-33.9374,151.138,1362503,Assisted,2964,262,7,3
2,NSW,Barton,104,2,Bardwell Park,Current,Bardwell Park Infants School,4 Crewe La, ,,BARDWELL PARK,NSW,2207,2643,,,"Gate at 4 Crew Lane, Bardwell  Park NSW 2207. Laneway at Darley Road, Bardwell Park",-33.9338,151.125,1362202,None,1158,66,3,1
2,NSW,Barton,104,2,Beverly Hills,Current,St Bede's Anglican Church Hall,119 Morgan St,,,BEVERLY HILLS,NSW,2209,2645,,,119 Morgan St Beverly Hills NSW 2209,-33.9492,151.083,1360507,Assisted,1259,167,3,2
2,NSW,Barton,104,2,Beverly Hills Central,Current,Beverly Hills Uniting Church Hall,82 Ponyara Rd, ,,BEVERLY HILLS,NSW,2209,2670,,,"Door at 82 Ponyara Road, BEVERLY HILLS",-33.947,151.079,1360501,None,1298,152,3,2
2,NSW,Barton,104,2,Bexley,Current,Bexley Baptist Church,484 Forest Rd, ,,BEXLEY,NSW,2207,2647,,,"gateway 484 Forest Road, BEXLEY",-33.9515,151.125,1362309,None,1968,187,4,2
2,NSW,Barton,104,2,Bexley Central,Current,St Gabriel's School,50 Abercorn St, ,,BEXLEY,NSW,2207,2648,,,"Main gate at 50 Abercorn St, BEXLEY Back gate at Highgate St, BEXLEY",-33.9479,151.122,1362209,Assisted,926,93,2,1
2,NSW,Barton,104,2,Bexley East,Current,Bexley Public School,330-354 Forest Rd, ,,BEXLEY,NSW,2207,2640,New School Hall,for disabled Albyn St,"Gate in Albyn Street, BEXLEY for Disabled Parking. Gate at 330 Forest Road, BEXLEY Lane at Frederick Street, ROCKDALE",-33.9467,151.128,1362208,Full,1682,187,4,2
2,NSW,Barton,104,2,Bexley North,Current,Bexley North Public School,116 Kingsland Rd, ,,BEXLEY NORTH,NSW,2207,2649,New School Hall,Disabled Pkg Wilkinson S,"Gate at 116 Kingsland Rd N, BEXLEY NORTH Driveway for disabled at Wilkinson Rd, BEXLEY NORTH Gate at Benjamin Street, BEXLEY NORTH",-33.9407,151.121,1362205,Assisted,1205,87,3,1
2,NSW,Barton,104,2,Bexley South,Current,Sydney Technical High School,686 Forest Rd,,,BEXLEY,NSW,2207,34034,,,"Gate at Forest Road, BEXLEY",-33.9625,151.113,1362011,None,836,193,2,2
2,NSW,Barton,104,2,Bexley West,Current,Bexley West Uniting Church Hall,80A St Georges Rd, ,,BEXLEY,NSW,2207,2650,,,"Doors at 80A St Georges Rd, BEXLEY",-33.9522,151.114,1362009,Full,2269,183,6,2
2,NSW,Barton,104,2,Brighton North,Current,St Mark's Anglican Church Hall,3 Trafalgar St,,,BRIGHTON-LE-SANDS,NSW,2216,39,,,"3 Trafalgar Street, Brighton-Le-Sands",-33.9605,151.154,1362903,None,1240,151,3,2
2,NSW,Barton,104,2,Brighton-Le-Sands,Current,Brighton-Le-Sands Public School,35 Crawford Rd, ,,BRIGHTON-LE-SANDS,NSW,2216,38,,,School gate in Crawford Street,-33.9627,151.148,1362901,Full,2690,343,6,5
2,NSW,Barton,104,2,Carlton,Current,Carlton Public School,60 Cameron St,,,BEXLEY,NSW,2207,2653,,,Cameron Street gate,-33.9624,151.124,1361911,Assisted,2933,226,6,3
2,NSW,Barton,104,2,Carlton South (Barton),Current,Carlton South Public School,Jubilee Avenue, ,,CARLTON,NSW,2218,47,,Jubilee Ave & Ecole St,"School gate in Jubilee Avenue, Carlton School gate in Ecole Street, Carlton",-33.9727,151.128,1361703,Assisted,2639,295,6,3
2,NSW,Barton,104,2,Carlton West (Barton),Abolition,,,,,,,,56544,,,,,,0,,0,0,0,0
2,NSW,Barton,104,2,Carss Park,Current,Blakehurst Public School,Dewrang St, ,,CARSS PARK,NSW,2221,40,,,Gates in Dewrang Street and bridge over Princes Highway,-33.9834,151.116,1361613,Assisted,719,142,2,2
2,NSW,Barton,104,2,Clemton Park (Barton),Current,Clemton Park Public School,185 Bexley Rd, ,,EARLWOOD,NSW,2206,2656,,"Miller St, Kingsgrove","Main Gate on Miller Street, Kingsgrove Front Gate at 185 Bexley Road, Earlwood",-33.92951,151.10897,1351607,Assisted,2154,233,6,3
2,NSW,Barton,104,2,Earlwood,Current,Earlwood Uniting Church Hall,16 William Street, ,,EARLWOOD,NSW,2206,2659,,,"Doorway at 16 William Street, Earlwood",-33.9274,151.123,1351703,Assisted,1005,161,3,2
2,NSW,Barton,104,2,Earlwood Central,Current,Our Lady of Lourdes Catholic School Hall,St James Ave,,,EARLWOOD,NSW,2206,2660,New School Hall,Lower Gate,gate at St James Avenue. EARLWOOD NSW 2206,-33.9281,151.127,1351801,None,1605,178,4,2
2,NSW,Barton,104,2,Earlwood South,Current,Earlwood Public School,396 Homer St, ,,EARLWOOD,NSW,2206,2661,,,"Gate on 396 Homer Street, EARLWOOD Gate on Richard Avenue, EARLWOOD",-33.9283,151.124,1351704,Assisted,2647,282,6,3
2,NSW,Barton,104,2,Kingsgrove,Current,St Thomas'/Sth W Chinese Christian Church Hall,4 Morgan St, ,,KINGSGROVE,NSW,2208,2666,,,"Gate 4 Morgan Street, Kingsgrove",-33.9401,151.103,1360611,Assisted,1776,189,4,2
2,NSW,Barton,104,2,Kingsgrove North,Appointment,Kingsgrove North High School,2 St Albans Rd, ,,KINGSGROVE,NSW,2208,2657,,,"School Gate at 2 St Albans Road School Gate at Richland Road, Kingsgrove",-33.93385,151.09621,1351601,Assisted,978,347,2,4
2,NSW,Barton,104,2,Kingsgrove North (Barton),Abolition,Kingsgrove North High School,2 St Albans Rd, ,,KINGSGROVE,NSW,2208,2657,,,,,,0,,0,0,0,0
2,NSW,Barton,104,2,Kingsgrove South,Current,Kingsgrove High School,Kingsgrove Rd,,,KINGSGROVE,NSW,2208,2667,,,"School Gate on Kingsgrove Rd, Kingsgrove School Gate on Rayment Ave, Kingsgrove",-33.9494,151.102,1360603,Assisted,1150,283,3,3
2,NSW,Barton,104,2,Kogarah,Current,Kogarah Uniting Church Hall,cnr Kensington & Gray Sts, ,,KOGARAH,NSW,2217,48,,,"Door on Kensington Street, Kogarah",-33.9666,151.132,1361804,Assisted,1084,329,3,3
2,NSW,Barton,104,2,Kogarah Bay,Current,Congregational Church Hall,cnr Wyee & Souter Sts, ,,KOGARAH BAY,NSW,2217,49,,,gate Wyee Street,-33.9839,151.123,1361605,None,1155,91,3,1
2,NSW,Barton,104,2,Kogarah Central,Current,Kogarah High School,Gladstone St, ,,KOGARAH,NSW,2217,50,,,"Gate at Gladstone Street, KOGARAH",-33.9616,151.136,1361802,Assisted,1589,337,4,4
2,NSW,Barton,104,2,Kogarah East,Current,St George School,2A Marshall Street, ,,KOGARAH,NSW,2217,54,,,Gate in Marshall st,-33.9687,151.137,1362805,Full,855,75,2,1
2,NSW,Barton,104,2,Kogarah North,Current,Sunnyhaven Ltd,35 Beach St, ,,KOGARAH,NSW,2217,71,,,"Gate at 35 Beach St, Kogarah",-33.9607,151.142,1362810,Full,502,45,2,1
2,NSW,Barton,104,2,Kogarah West,Current,Kogarah West Senior Citizens' Centre,15 Taylor Street, ,,KOGARAH,NSW,2217,2654,,,"Door at 15 Taylor Street, Kogarah",-33.9641,151.131,1361907,Assisted,1132,75,3,1
2,NSW,Barton,104,2,Kyeemagh,Current,Kyeemagh Public School,Beehag St, ,,KYEEMAGH,NSW,2216,51,,,Beehag Street,-33.9497,151.161,1362603,None,1069,100,3,1
2,NSW,Barton,104,2,Mccallums Hill (Barton),Current,McCallums Hill Public School,McCallum St, ,,ROSELANDS,NSW,2196,56570,,,Entrances:McCallum St           Remly St,-33.9352,151.085,1350405,Assisted,581,25,2,0
2,NSW,Barton,104,2,Monterey,Current,St George Archers Hall,cnr Burlington St & Chuter Ave, ,,MONTEREY,NSW,2217,52,,,Across grass on to ramp to doorway.,-33.973,151.145,1363008,None,1675,135,5,2
2,NSW,Barton,104,2,North Bexley North,Current,Kingsgrove/Bexley North Community Centre,54A Shaw Street,,,BEXLEY NORTH,NSW,2207,2662,,,Gate entrance,-33.9383,151.109,1362101,Assisted,1287,111,3,2
2,NSW,Barton,104,2,North Earlwood,Current,"Church of Christ Hall, Earlwood",6 Burlington Ave, ,,EARLWOOD,NSW,2206,2672,,,"entrance of 6 Burlington Ave, Earlwood",-33.9182,151.123,1351209,None,1642,114,4,2
2,NSW,Barton,104,2,Ramsgate,Current,Sans Souci Literary Institute,107 Ramsgate Rd, ,,RAMSGATE,NSW,2217,69,,,"door on Ramsgate Road, Ramsgate",-33.9847,151.138,1363109,Assisted,2056,226,5,3
2,NSW,Barton,104,2,Ramsgate Beach,Current,Ramsgate Public School,Chuter Ave, ,,RAMSGATE,NSW,2217,61,School hall,,"Gate at Chuter Ave, Ramsgate Beach Gate at Hawthorne St used by Growers Mkt closed at 2pm (if raining not open)",-33.982,151.144,1363103,None,2337,283,5,3
2,NSW,Barton,104,2,Rockdale,Current,Rockdale Public School,Lord St, ,,ROCKDALE,NSW,2216,62,,,"School Gate at Lord Street, Rockdale",-33.9527,151.142,1362406,Assisted,1555,193,5,2
2,NSW,Barton,104,2,Rockdale Central,Current,Rockdale Uniting Church Hall,11 Bay St, ,,ROCKDALE,NSW,2216,63,,,Bay Street Gate,-33.9537,151.139,1362806,None,2551,366,7,4
2,NSW,Barton,104,2,Rockdale Park,Current,St Pius X Catholic Church Hall,280 West Botany St, ,,ROCKDALE,NSW,2216,64,,,Gate at 280 West Botany Street,-33.9507,151.149,1362702,Assisted,1224,148,3,2
2,NSW,Barton,104,2,Rockdale West,Current,St Joseph's Parish Centre,Parker Street, ,,ROCKDALE,NSW,2216,2671,,Walz St & Parker St,school gates in Parker St and Walz St,-33.9504,151.136,1362407,None,1615,176,5,2
2,NSW,Barton,104,2,Sandringham,Current,Sans Souci Community Pre-school,95 Clareville Ave,,,SANDRINGHAM,NSW,2219,41,,,"95 Clareville Avenue, Sandringham",-33.9991,151.139,1363206,Assisted,2384,173,5,2
2,NSW,Barton,104,2,Sans Souci,Current,Sans Souci Public School,413 Rocky Point Rd, ,,SANS SOUCI,NSW,2219,68,New School Hall,Disabled Rocky Pt Rd,"Disabled Access Gate via Rocky Point Rd, Sans Souci Gate in Endeavour St, Sans Souci Gate in The Boulevarde, Sans Souci",-33.9951,151.13,1361610,Assisted,2400,282,5,3
2,NSW,Barton,104,2,Sans Souci North,Current,Sans Souci Baptist Church,2 Hillview St, ,,SANS SOUCI,NSW,2219,37,Hall,,Hillview Street,-33.99,151.133,1361609,None,340,56,1,1
2,NSW,Barton,104,2,Sydney (Barton),Current,Sydney Town Hall,George St, ,,SYDNEY,NSW,2000,14014,,Sydney Town Hall Square,via Town Hall Square,-33.8735,151.207,1400114,Assisted,146,17,0,0
2,NSW,Barton,104,2,Turrella,Current,Cairnsfoot Special School,22 Loftus Street, ,,TURRELLA,NSW,2205,2641,,,"School Gate at 22 Loftus Street, Turrella",-33.9319,151.145,1362511,None,1282,127,3,2
2,NSW,Barton,104,2,Undercliffe,Current,Undercliffe Public School,143 Bayview Ave, ,,EARLWOOD,NSW,2206,2673,,,"Gate at 143 Bayvew Avenue, EARLWOOD Gate in Homer Street, EARLWOOD",-33.9244,151.139,1351803,Assisted,1914,177,4,2
2,NSW,Bennelong,105,3,Balaclava,Abolition,Epping Boys High School,213 Vimiera Rd, ,,MARSFIELD,NSW,2122,75,,,,,,0,,0,0,0,0
2,NSW,Bennelong,105,3,Boronia Park (Bennelong),Current,Boronia Park Public School,Pittwater Rd, ,,HUNTERS HILL,NSW,2110,33930,,,Pittwater Rd - 1 gate,-33.8212708,151.135236,1381510,Assisted,802,0,2,0
2,NSW,Bennelong,105,3,Carlingford (Bennelong),Current,Carlingford Public School,Rickard St, ,,CARLINGFORD,NSW,2118,634,,,Rickard St - 2 driveways and 5 gates,-33.7800229,151.0553219,1330910,None,1344,168,3,2
2,NSW,Bennelong,105,3,Denistone,Current,Eastwood Baptist Hall,3 First Ave, ,,EASTWOOD,NSW,2122,638,,,Hall entry Main gate - Rutledge St,-33.79244,151.08353,1380601,Assisted,1093,104,3,1
2,NSW,Bennelong,105,3,Denistone East,Current,Denistone East Public School,Lovell Rd,,,DENISTONE EAST,NSW,2112,639,,,Lovell Rd - 3 gates Brabyn St - 2 gates,-33.7935,151.097,1380205,Assisted,2612,146,6,2
2,NSW,Bennelong,105,3,Denistone North,Appointment,Ryde Hospital,Denistone Rd, ,,EASTWOOD,NSW,2122,656,VMO Lounge,,VMO lounge via Public Car Park,-33.7960028,151.0909419,1380206,Assisted,744,102,3,2
2,NSW,Bennelong,105,3,Denistone West,Current,Marsden High School,Winbourne St, ,,WEST RYDE,NSW,2114,647,,,Winbourne St - 1 driveway & 1 gate,-33.8036,151.07,1380311,Assisted,1533,106,4,1
2,NSW,Bennelong,105,3,Eastview,Current,Australian Air League Building,Santa Rosa Park,64 Bridge Rd,,RYDE,NSW,2112,79,Building in Santa Rosa Park,,Main Entry Bridge Rd,-33.7943477,151.109308,1380704,None,1184,76,3,1
2,NSW,Bennelong,105,3,Eastwood,Current,Eastwood Public School,Rowe St, ,,EASTWOOD,NSW,2122,642,,,Rowe St - 2 gates Rutledge St - 2 driveway & 1 gate Cnr Rowe & Shaftsbury - 1 driveway,-33.7928,151.078,1380404,Assisted,3755,430,8,4
2,NSW,Bennelong,105,3,Eastwood Heights,Current,Eastwood Heights Public School,Lincoln St, ,,EASTWOOD,NSW,2122,80,,,Lincoln St - 1 gate Bellamy Ave - 1 gate,-33.7817,151.096,1380106,Assisted,1677,75,4,1
2,NSW,Bennelong,105,3,Eastwood West,Current,Corrective Services Academy,66 Terry Rd, ,,EASTWOOD,NSW,2122,643,Conference Room,Lawson St,Lawson St - main gate,-33.7906,151.067,1380302,Assisted,1570,150,4,2
2,NSW,Bennelong,105,3,Epping,Current,Epping Church of Christ,31 Bridge St, ,,EPPING,NSW,2121,644,,,Bridge St - Main Hall entry,-33.7745,151.079,1331007,Assisted,2499,218,5,2
2,NSW,Bennelong,105,3,Epping East,Current,Epping Public School,Norfolk Rd,,,EPPING,NSW,2121,81,,,Norfolk Rd - 2 gates,-33.768408,151.0871472,1251212,Assisted,2205,200,5,2
2,NSW,Bennelong,105,3,Epping Heights,Current,Epping Heights Public School,128 Kent St, ,,EPPING,NSW,2121,645,,,Kent St - 1 gate & car park entrance,-33.76284,151.07377,1251111,Assisted,1802,116,4,2
2,NSW,Bennelong,105,3,Epping North,Current,Epping North Public School,Boundary Rd, ,,NORTH EPPING,NSW,2121,82,,,Boundary Rd - 2 gates & 1 carpark,-33.7576,151.096,1251315,Assisted,2617,127,6,2
2,NSW,Bennelong,105,3,Epping West,Current,Epping West Public School,96 Carlingford Rd, ,,EPPING,NSW,2121,11927,,,"Carlingford Rd - 1 gate, walkway & d/way Ward St - 2 gates",-33.7728471,151.0684506,1251107,Assisted,2985,248,6,3
2,NSW,Bennelong,105,3,Ermington,Current,Ermington Community Centre,8 River Rd,,,ERMINGTON,NSW,2115,33783,,,River Rd - 1 driveway,-33.8161262,151.0534399,1331101,Assisted,574,137,2,2
2,NSW,Bennelong,105,3,Ermington Central,Current,Rydalmere East Public School,Spurway St, ,,ERMINGTON,NSW,2115,2252,,,Mailing Ave - 1 gate & 1 car park gate,-33.816527,151.0572843,1331106,Assisted,1296,242,3,3
2,NSW,Bennelong,105,3,Ermington West (Bennelong),Current,Ermington West Public School,Vignes St, ,,ERMINGTON,NSW,2115,2253,,,Gate 1: Vignes St,-33.8061,151.058,1331207,Assisted,1885,169,4,2
2,NSW,Bennelong,105,3,Gladesville (Bennelong),Current,Gladesville Public School,Victoria Rd, ,,GLADESVILLE,NSW,2111,84,,,Main - Victoria Road Side - Linsley Street Car Park - Orr Street (Rear of School),-33.8323301,151.1259218,1381310,Assisted,2071,323,6,3
2,NSW,Bennelong,105,3,Gladesville Central,Current,St Andrew's Presbyterian Church,cnr Victoria & Pittwater Rds, ,,GLADESVILLE,NSW,2111,85,,,Cnr Pittwater and Victoria Rd- main gate Pittwater Rd - driveway,-33.82994,151.12699,1381407,None,623,207,2,2
2,NSW,Bennelong,105,3,Gladesville East,Abolition,,,,,,,,86,,,,,,0,,0,0,0,0
2,NSW,Bennelong,105,3,Gladesville North,Current,Gladesville Scout Hall,cnr Ryde & Westminster Rds,,,GLADESVILLE,NSW,2111,87,,,Ryde Road - main entrance,-33.8228,151.128,1381403,None,1730,212,4,2
2,NSW,Bennelong,105,3,Gladesville West,Current,Tennyson Pre-school Kindergarten,15A Stanbury St,,,GLADESVILLE,NSW,2111,88,,,corner Stanbury st and Nokia St - gate,-33.8277117,151.1201395,1381409,None,556,30,2,1
2,NSW,Bennelong,105,3,Holy Cross Ryde,Abolition,Ryde Secondary College,5 Malvina St,,,RYDE,NSW,2112,33877,,,,,,0,,0,0,0,0
2,NSW,Bennelong,105,3,Kent Road,Current,Kent Road Public School,cnr Herring & Kent Rds,,,MARSFIELD,NSW,2122,92,,,Kent Rd - 1 gate & 1 car park gate Herring Rd - 4 gates,-33.7864,151.109,1380806,Assisted,2244,161,5,2
2,NSW,Bennelong,105,3,Kittys Creek,Current,Montessori Pre-School,109 Cressy Rd,,,NORTH RYDE,NSW,2113,93,,,Cressy Rd - Doorway Main building,-33.8051163,151.1319848,1381006,None,419,21,1,0
2,NSW,Bennelong,105,3,Lyon Park,Abolition,Morling College,120 Herring Rd,,,MACQUARIE PARK,NSW,2113,98,,,,,,0,,0,0,0,0
2,NSW,Bennelong,105,3,Macquarie Park,Appointment,Morling College,120 Herring Rd,,,MACQUARIE PARK,NSW,2113,98,Dining Hall,,Herring rd - carpark entrance and path,-33.7797606,151.1149218,1380101,Assisted,1477,288,3,3
2,NSW,Bennelong,105,3,Marsfield,Current,Marsfield Scout Hall,72 Agincourt Rd,,,MARSFIELD,NSW,2122,99,,,,-33.782625,151.103196,1380809,None,2166,192,5,2
2,NSW,Bennelong,105,3,Marsfield North,Appointment,Epping Boys High School,213 Vimiera Rd, ,,MARSFIELD,NSW,2122,75,,,Vimiera Rd - 1 driveway,-33.7703911,151.0996223,1380107,Assisted,2764,279,6,3
2,NSW,Bennelong,105,3,Meadowbank,Current,Meadowbank TAFE College,See St,,,MEADOWBANK,NSW,2114,650,Cafeteria,,2 Entrances - See Street 1 Entrance - Rhodes Street Polling - Building P. Take lift to Cante en,-33.8148423,151.0924377,1380509,Assisted,1357,153,3,2
2,NSW,Bennelong,105,3,Melrose Park,Current,Melrose Park Public School,110 Wharf Rd,,,MELROSE PARK,NSW,2114,33928,,,Wharf Rd - 1 gate Mary St - pathway,-33.8151,151.073,1331104,Assisted,1453,142,3,2
2,NSW,Bennelong,105,3,Middle Ryde,Appointment,Ryde Secondary College,5 Malvina St,,,RYDE,NSW,2112,33877,,Forrest Rd,Forrest Rd - gate,-33.8133913,151.1200494,1381107,Assisted,394,36,1,0
2,NSW,Bennelong,105,3,Parkes Street,Current,Ryde TAFE School of Horticulture,Parkes St, ,,WEST RYDE,NSW,2114,8869,,,Entrance by foot or car to Banksia Build ing see college map,-33.8085,151.1,1380711,Assisted,1626,136,4,2
2,NSW,Bennelong,105,3,Putney,Current,Putney Public School,193 Morrison Rd, ,,PUTNEY,NSW,2112,102,,,Morrison Rd - 4 entrances Parry St - 1 gate,-33.8249,151.111,1381302,None,3067,239,7,3
2,NSW,Bennelong,105,3,Roselea,Current,Roselea Public School,449 North Rocks Rd, ,,CARLINGFORD,NSW,2118,33926,,,North Rocks Rd - 2 driveways & 2 gates,-33.7654,151.053,1251008,Assisted,2559,291,6,3
2,NSW,Bennelong,105,3,Royal Ryde Homes,Abolition,Royal Rehab Todman Hall,259 Morrison Rd, ,,RYDE,NSW,2112,653,,,,,,0,,0,0,0,0
2,NSW,Bennelong,105,3,Ryde,Current,Ryde Masonic Hall,142 Blaxland Rd,,,RYDE,NSW,2112,654,,,Blaxland Rd - 1 street entrance,-33.8128,151.105,1381204,None,1602,197,4,2
2,NSW,Bennelong,105,3,Ryde Central,Current,Ryde Baptist Church Hall,cnr Lane Cove Rd & Dobson Cres,,,RYDE,NSW,2112,104,Lower level,,Dobson Cres - follow steps up then down Disabled parking in Lane Cove Rd but gat e is normally locked,-33.8060761,151.1117662,1381103,None,939,80,2,1
2,NSW,Bennelong,105,3,Ryde East,Current,Ryde East Public School,12 Twin Rd,,,NORTH RYDE,NSW,2113,105,,,Twin Rd - Driveway & gate Badajoz Rd - Driveway and gate,-33.8063669,151.1268905,1381106,Assisted,3128,190,7,2
2,NSW,Bennelong,105,3,Ryde Heights,Current,Meadowbank Public School,Thistle St, ,,RYDE,NSW,2112,655,,,Thistle Street - main gate Gale St - level entry gate,-33.8178,151.098,1381207,None,1203,155,3,2
2,NSW,Bennelong,105,3,Ryde Hospital,Abolition,Ryde Hospital,Denistone Rd, ,,EASTWOOD,NSW,2122,656,,,,,,0,,0,0,0,0
2,NSW,Bennelong,105,3,Ryde North,Current,North Ryde Public School,Coxs Rd, ,,NORTH RYDE,NSW,2113,106,,,Coxs Rd - gate Lane Cove Rd - gate,-33.7939,151.12,1381112,Assisted,3083,285,7,3
2,NSW,Bennelong,105,3,Ryde South,Current,Evangel Bible Church,17 Douglas St, ,,PUTNEY,NSW,2112,657,,,Main entry rear of chruch,-33.824,151.106,1381206,None,681,41,2,1
2,NSW,Bennelong,105,3,Ryde View,Appointment,Royal Rehab Todman Hall,259 Morrison Rd, ,,RYDE,NSW,2112,653,Todman Hall,,Morrison Rd - driveway/path Princes St - 1 gate,-33.8206739,151.105219,1381201,Assisted,431,83,2,2
2,NSW,Bennelong,105,3,Sydney (Bennelong),Current,Sydney Town Hall,George St, ,,SYDNEY,NSW,2000,14017,,Sydney Town Hall Square,via Town Hall Square,-33.8735,151.207,1400114,Assisted,151,9,0,0
2,NSW,Bennelong,105,3,Top Ryde,Current,Ryde Public School,Pope St,,,RYDE,NSW,2112,34349,,,Entrance to Polling Place - Main Door       lower school area Grounds Gate - Lower Tucker St         Gate - Argyle Ave car park,-33.8118,151.108,1381110,Assisted,1834,293,4,3
2,NSW,Bennelong,105,3,Truscott,Current,Truscott Street Public School,Truscott St, ,,NORTH RYDE,NSW,2113,107,,Ryrie St,Ryrie St - gate,-33.7947,151.13,1381003,Assisted,1698,97,4,1
2,NSW,Bennelong,105,3,Water Tanks,Current,Ryde Congregational Church,327 Blaxland Rd,,,RYDE,NSW,2112,660,,,Blaxland Rd driveway/path,-33.8039765,151.1033893,1380605,Assisted,1398,65,3,1
2,NSW,Bennelong,105,3,West Ryde,Current,West Ryde Public School,6 Endeavour St, ,,WEST RYDE,NSW,2114,661,,,Endeavour St - 2 gates & 1 driveway,-33.8087,151.085,1380407,None,3239,359,7,4
2,NSW,Bennelong,105,3,Wicks,Abolition,,,,,,,,108,,,,,,0,,0,0,0,0
2,NSW,Berowra,106,4,Annangrove (Berowra),Current,Annangrove Public School,185 Annangrove Rd, ,,ANNANGROVE,NSW,2156,1822,,,Annangrove Rd - 2 gates & 1 driveway,-33.6687322,150.9522275,1260204,None,1227,133,3,2
2,NSW,Berowra,106,4,Arcadia,Current,Arcadia Public School,140 Arcadia Rd, ,,ARCADIA,NSW,2159,1823,,,Arcadia Rd - 1 driveway & 1 gate Blacks Rd - 1 gate,-33.6231223,151.0520461,1250109,None,894,135,2,2
2,NSW,Berowra,106,4,Asquith (Berowra),Current,Asquith Public School,Dudley St, ,,ASQUITH,NSW,2077,43686,,,Dudley St - 2 entries Hazlemead Rd - 1 gate,-33.6855,151.112,1251613,Assisted,786,0,2,0
2,NSW,Berowra,106,4,Beecroft,Current,Beecroft Public School,90-98 Beecroft Rd, ,,BEECROFT,NSW,2119,632,,,Mary St - 1 pedestrian gate Copeland Rd - gate,-33.7523233,151.0651663,1251005,Assisted,3378,319,7,3
2,NSW,Berowra,106,4,Berowra,Current,Berowra Public School,Hillcrest Rd, ,,BEROWRA,NSW,2081,117,,,Berowra Waters Rd - 1 gate Hillcrest Rd - 2 gate & 1 driveway,-33.6181,151.147,1250211,Assisted,3361,239,7,3
2,NSW,Berowra,106,4,Berowra Heights,Current,Wideview Public School,Wideview Rd, ,,BEROWRA HEIGHTS,NSW,2082,118,,,Wideview Rd. 2 pedestrian gates and 1 vehicle access to carpark,-33.6094008,151.1427318,1250203,None,1888,88,4,1
2,NSW,Berowra,106,4,Berowra Waters,Current,Fish Cafe,199 Bay Rd, ,,BEROWRA WATERS,NSW,2082,1828,,,Entrance to polling place: via Fish Cafe,-33.5995109,151.1204538,1250114,None,93,24,1,0
2,NSW,Berowra,106,4,Brooklyn,Current,Brooklyn Public School,106 Brooklyn Rd, ,,BROOKLYN,NSW,2083,120,,,Brooklyn Rd - 1 driveway & 1 gate Cowan St - 1 driveway Ross St - 1 gate,-33.54813,151.21538,1250208,None,431,120,1,2
2,NSW,Berowra,106,4,Cheltenham,Current,Cheltenham Girls High School,The Promenade,,,CHELTENHAM,NSW,2119,637,,,The Promenade (Pedestrian & Parking),-33.7578,151.074,1251303,Assisted,1473,93,3,1
2,NSW,Berowra,106,4,Cherrybrook,Current,Cherrybrook Public School,131 New Line Rd,,,CHERRYBROOK,NSW,2126,11928,,,New Line Rd - gate and driveway All Saints Cl - laneway,-33.7314,151.042,1250901,None,3060,192,7,2
2,NSW,Berowra,106,4,Cherrybrook Central,Current,Cherrybrook Girl Guides Hall,cnr Shepherds Dr & Macquarie Dr,,,CHERRYBROOK,NSW,2126,34004,,,open walk way from Shepherds Dr or Macqu arie Dr,-33.7205638,151.0459716,1250811,Assisted,1055,86,3,1
2,NSW,Berowra,106,4,Cherrybrook North,Appointment,Cherrybrook Technology High School,28-44 Purchase Rd,,,CHERRYBROOK,NSW,2126,1852,,,Purchase Road - Pedestrian Access,-33.7190356,151.0376017,1251707,Assisted,4246,235,9,3
2,NSW,Berowra,106,4,Cherrybrook South,Current,West Pennant Hills Scout Hall,Wilga St,,,WEST PENNANT HILLS,NSW,2125,11929,,,,-33.7380934,151.0509109,1250908,None,1261,73,3,1
2,NSW,Berowra,106,4,Cowan,Current,Cowan Public School,Chandler Ave, ,,COWAN,NSW,2081,121,,,Park St 1 gate Chandler Ave 2 gates,-33.5885,151.169,1250205,Assisted,457,29,1,0
2,NSW,Berowra,106,4,Dangar Island,Current,Dangar Island Community Centre Hall,15 Neotsfield Ave,,,DANGAR ISLAND,NSW,2083,122,,,access to hall via pathway.,-33.5371646,151.2411149,1250202,Assisted,131,26,1,0
2,NSW,Berowra,106,4,Dural,Current,Dural Public School,622 Old Northern Rd, ,,DURAL,NSW,2158,11930,,,Old Northern Rd - 2 gates & 1 driveway,-33.6857,151.026,1261708,Assisted,2346,207,5,2
2,NSW,Berowra,106,4,Eurambie Park (Berowra),Current,Eurambie Park Child Care Centre,41 Coonara Ave, ,,WEST PENNANT HILLS,NSW,2125,11971,,,1 entrance Coonara Ave   (front door entrance off car park),-33.7447,151.03,1261611,None,1515,110,4,1
2,NSW,Berowra,106,4,Galston,Current,Galston Public School,School Rd, ,,GALSTON,NSW,2159,1836,,,School Rd - 1 gate & 1 driveway,-33.648,151.045,1250108,Assisted,1918,138,4,2
2,NSW,Berowra,106,4,Glenhaven,Appointment,Glenhaven Public School,Glenhaven Rd, ,,GLENHAVEN,NSW,2156,1838,,,Glenhaven Rd  - 2 gates,-33.701,151.004,1261406,Assisted,2885,421,6,4
2,NSW,Berowra,106,4,Glenhaven (Berowra),Abolition,Glenhaven Public School,Glenhaven Rd, ,,GLENHAVEN,NSW,2156,1838,,,,,,0,,0,0,0,0
2,NSW,Berowra,106,4,Glenorie,Current,Glenorie Public School,1731 Old Northern Rd, ,,GLENORIE,NSW,2157,1839,,,Old Northern Rd - 3 pedestrian gates Tecoma Dr - 1 pedestrian gate & 1 d/way,-33.5987,151.008,1250111,None,1511,96,4,1
2,NSW,Berowra,106,4,Hillside Central,Current,Hillside Public School,122 Cattai Ridge Rd, ,,GLENORIE,NSW,2157,1831,,,Cattai Ridge Rd Gate,-33.6054902,150.9788283,1260201,None,415,31,1,0
2,NSW,Berowra,106,4,Hornsby (Berowra),Current,Hornsby TAFE College,205 Pacific Hwy, ,,HORNSBY,NSW,2077,123,Canteen,,Pacific Hwy - 2 paths,-33.7,151.097,1250607,Assisted,1106,144,3,2
2,NSW,Berowra,106,4,Hornsby Central (Berowra),Current,Hornsby Girls High School,Edgeworth David Ave, ,,HORNSBY,NSW,2077,43688,,,Edgeworth David Ave - 1 gate & 1 d/way Thomas St - 1 driveway,-33.7064,151.102,1251517,None,509,0,2,0
2,NSW,Berowra,106,4,Hornsby Heights,Current,Hornsby Heights Public School,8 Somerville Rd, ,,HORNSBY HEIGHTS,NSW,2077,124,,,Somerville Rd - 2 gates & 1 driveway Pike Rd - 1 driveway,-33.670187,151.0966482,1250402,Assisted,2541,149,6,2
2,NSW,Berowra,106,4,Hornsby North,Current,Hornsby North Public School,Ida St, ,,HORNSBY,NSW,2077,126,,,Ida St. - 1 gate & 1 driveway Cawthorne St. - 1 gate,-33.6833,151.098,1250604,None,2028,137,5,2
2,NSW,Berowra,106,4,Hornsby South,Current,Hornsby South Public School,Clarke Rd, ,,HORNSBY,NSW,2077,134,,,Clarke Rd - 1 drive & 1 gate Ronald St - 1 driveway,-33.7127637,151.0955118,1251411,Assisted,1379,196,3,2
2,NSW,Berowra,106,4,Hornsby West,Current,Hornsby War Memorial Hall,2 High St,,,HORNSBY,NSW,2077,128,,,Street frontage double doors (stairs),-33.70446,151.097122,1250609,Assisted,811,359,2,4
2,NSW,Berowra,106,4,John Purchase,Abolition,Cherrybrook Technology High School,28-44 Purchase Rd,,,CHERRYBROOK,NSW,2126,1852,,,,,,0,,0,0,0,0
2,NSW,Berowra,106,4,Kenthurst,Current,Kenthurst Public School,111 Kenthurst Rd, ,,KENTHURST,NSW,2156,1842,,Dural St,Dural St - 2 gates (no stairs),-33.6654,151.004,1261704,Assisted,2599,238,6,3
2,NSW,Berowra,106,4,Maroota,Current,Maroota Public School,Old Northern Rd, ,,MAROOTA,NSW,2756,1788,,,Gate and driveway Old Northern Road,-33.45935,150.99446,1260108,None,365,61,1,1
2,NSW,Berowra,106,4,Maroota South,Current,South Maroota Hall,Wisemans Ferry Rd, ,,SOUTH MAROOTA,NSW,2756,1789,,,Entrance from carpark off Wisemans Ferry  Rd (nearest cross st Paul's Rd),-33.5234,150.944,1260109,Assisted,427,35,1,0
2,NSW,Berowra,106,4,Middle Dural,Current,Middle Dural Public School,1251 Old Northern Road, ,,MIDDLE DURAL,NSW,2158,1846,,,Cnr Mid Dural Rd & Old Northern - 1 gate Mid Dural Rd - 1 gate & 1 driveway,-33.6444,151.023,1250502,Assisted,1197,129,3,2
2,NSW,Berowra,106,4,Mount Colah,Current,Mount Colah Public School,Telopea St, ,,MOUNT COLAH,NSW,2079,131,,,Telopea Rd - 1 gate & 1 driveway Pierre Cl - 1 gate & 1 driveway,-33.6726,151.117,1251602,Assisted,2928,186,6,2
2,NSW,Berowra,106,4,Mount Kuring-Gai,Current,Mount Kuring-Gai Public School,Leeming St, ,,MOUNT KURING-GAI,NSW,2080,132,,,Leeming St - 1 gate & 1 driveway King St - 1 driveway,-33.6575,151.136,1251609,None,1256,80,3,1
2,NSW,Berowra,106,4,Murray Farm,Current,Murray Farm Public School,Tracey Ave, ,,CARLINGFORD,NSW,2118,1850,,,Tracey Ave - 2 gates & 1 driveway Dryden Ave - 1 pathway,-33.7658,151.039,1261006,Assisted,3006,292,7,3
2,NSW,Berowra,106,4,Normanhurst (Berowra),Current,Normanhurst Public School,Normanhurst Rd, ,,NORMANHURST,NSW,2076,56575,,,Normanhurst Rd - Pedestrian gate and driveway,-33.7237,151.098,1251410,None,307,0,1,0
2,NSW,Berowra,106,4,Normanhurst West,Current,Normanhurst West Public School,Dartford Rd, ,,THORNLEIGH,NSW,2120,135,,,Dartford Rd - 2 gates and 1 driveway Milson Pde - 1 gate,-33.72177,151.08808,1250707,Assisted,2232,261,5,3
2,NSW,Berowra,106,4,Oakhill Drive (Berowra),Current,Oakhill Drive Public School,1-5 Oakhill Drive,,,CASTLE HILL,NSW,2154,33781,,,Oakhill Drive main gate and pedestrian gate,-33.721514,151.0232634,1251713,Assisted,2018,0,5,0
2,NSW,Berowra,106,4,Pennant Hills,Current,Pennant Hills High School,Laurence St,,,PENNANT HILLS,NSW,2120,136,,,Laurence St - 2 driveways & 1 gate Boundary Rd - 2 gates Bellamy Rd - 1 gate (double gate),-33.7328992,151.0614421,1250804,Assisted,3410,225,7,3
2,NSW,Berowra,106,4,Samuel Gilbert (Berowra),Current,Samuel Gilbert Public School,cnr Ridgecrop Dr & Gilbert Rd, ,,CASTLE HILL,NSW,2154,56586,,,Ridgecrop Dr pedestrian gate,-33.7142,150.993,1261407,None,618,0,2,0
2,NSW,Berowra,106,4,Sydney (Berowra),Current,Sydney Town Hall,George St, ,,SYDNEY,NSW,2000,14020,,Sydney Town Hall Square,via Town Hall Square,-33.8735,151.207,1400114,Assisted,104,6,0,0
2,NSW,Berowra,106,4,Thompsons Corner,Current,West Pennant Hills Public School,Church St, ,,WEST PENNANT HILLS,NSW,2125,1855,,,"Church St - 2 gates Castle Hill Rd, via Coles carpark - gate",-33.7459033,151.0501363,1251001,Assisted,3219,277,7,3
2,NSW,Berowra,106,4,Thornleigh (Berowra),Current,Chinese & Aust Baptist Church,235 Pennant Hills Rd, ,,THORNLEIGH,NSW,2120,56576,,Loch Maree Ave,Enter Loch Maree Ave,-33.7282,151.085,1251405,Assisted,455,0,1,0
2,NSW,Berowra,106,4,West Pennant Hills (Berowra),Current,West Pennant Hills Valley Community Centre,42A Hill Rd,,,WEST PENNANT HILLS,NSW,2125,33118,,,Hill Rd - Driveway,-33.7477183,151.0270559,1261602,Assisted,1926,153,4,2
2,NSW,Berowra,106,4,Westleigh,Current,Thornleigh West Public School,Giblett Ave, ,,THORNLEIGH,NSW,2120,148,,,Giblett Ave - 1 gate & 1 driveway,-33.7242,151.072,1251402,Assisted,3421,222,7,3
2,NSW,Berowra,106,4,Wisemans Ferry,Current,Wisemans Ferry Public School,Old Northern Rd,,,WISEMANS FERRY,NSW,2775,33800,,,Old Northern Road - Gate and driveway,-33.3954535,150.9849427,1260101,Assisted,152,262,1,3
2,NSW,Blaxland,107,5,Auburn East (Blaxland),Current,St Joseph the Worker Hall,cnr Wellington Rd and Renshaw Ave, ,,AUBURN,NSW,2144,2366,Renshaw Ave,,Entrance: Renshaw Ave,-33.8652,151.025,1340603,Assisted,743,86,2,1
2,NSW,Blaxland,107,5,Auburn West (Blaxland),Current,Auburn West Public School,cnr Chiswick & Chisholm Rds,,,AUBURN,NSW,2144,56664,,,Entrance :Chiswick Rd,-33.8603,151.02,1340610,Assisted,753,16,2,0
2,NSW,Blaxland,107,5,Bankstown (Blaxland),Current,Bankstown Public School,cnr Restwell St & McDonald Lane, ,,BANKSTOWN,NSW,2200,31455,,,Entrance:Restwell St-Pedestrian entrance,-33.9209,151.034,1342004,Assisted,1983,317,5,3
2,NSW,Blaxland,107,5,Bankstown Central (Blaxland),Current,Bankstown Senior Citizens Centre,7 West Tce,,,BANKSTOWN,NSW,2200,155,,,Entrance:West Terrace,-33.91927,151.03662,1342014,Assisted,1503,288,5,3
2,NSW,Blaxland,107,5,Bankstown East,Current,St Paul's Church,459 Chapel Rd, ,,BANKSTOWN,NSW,2200,154,,,Entrance:Chapel Rd,-33.9133,151.035,1341609,Assisted,1742,315,5,3
2,NSW,Blaxland,107,5,Bankstown North,Current,Bankstown North Public School,cnr 322 Hume Hwy & Beresford Ave,,,BANKSTOWN,NSW,2200,157,,Beresford Ave,Entrance: Beresford St-gate nearest the hall,-33.9054791,151.0386724,1341207,Assisted,1828,299,5,3
2,NSW,Blaxland,107,5,Bankstown South (Blaxland),Current,Bankstown South Infants School,18 Stacey St Sth, ,,BANKSTOWN,NSW,2200,56630,,,Entrance:Stacey Street-driveway entrance,-33.9309294,151.0385816,1341510,Assisted,344,7,1,0
2,NSW,Blaxland,107,5,Bankstown West,Current,Bankstown West Public School,141 William St, ,,BANKSTOWN,NSW,2200,177,,,Entrances: William St            Dutton St,-33.9164,151.02,1341615,None,2220,226,6,3
2,NSW,Blaxland,107,5,Bass Hill,Current,Bass Hill Public School,Horton St,,,BASS HILL,NSW,2197,159,,Clarke St,Entrance:Clarke St - driveway gate,-33.9047,151.006,1341702,Assisted,2613,305,7,3
2,NSW,Blaxland,107,5,Bass Hill West,Current,Bass High School,cnr Hume Hwy & Arundle Rd, ,,BASS HILL,NSW,2197,162,,Arundle Rd,Entrance:Arundle Rd,-33.8996,150.99,1341005,Assisted,3357,312,8,3
2,NSW,Blaxland,107,5,Berala (Blaxland),Current,Berala Public School,cnr Harrow Rd & Clarke St,,,BERALA,NSW,2141,2370,School Hall,Harrow Rd,Entrance: Harrow Rd,-33.8705,151.028,1340605,Assisted,2492,296,6,3
2,NSW,Blaxland,107,5,Berala South,Current,"Jubilee Hall, St Peter Chanel Catholic Church",62 Kingsland Rd, ,,BERALA,NSW,2141,2383,,,Entrance:Kingsland Rd,-33.8783,151.029,1340706,None,2482,267,6,3
2,NSW,Blaxland,107,5,Birrong,Current,Birrong Public School,132 Auburn Rd, ,,BIRRONG,NSW,2143,2371,,,Entrance:Auburn Rd,-33.8958,151.02,1341213,Assisted,3354,309,8,3
2,NSW,Blaxland,107,5,Blaxcell (Blaxland),Current,Blaxcell Street Public School,cnr Blaxcell St & Guildford Rd,,,SOUTH GRANVILLE,NSW,2142,2373,,Guildford Rd,Entrance: Guildford Rd,-33.8579,151.007,1331607,Assisted,3097,334,8,4
2,NSW,Blaxland,107,5,Chester Hill,Current,Chester Hill Community Hall,cnr Wellington Rd & Chester Hill Rd, ,,CHESTER HILL,NSW,2162,2375,,Wellington Rd,Entrance: Wellington Rd - path,-33.8847939,151.0008561,1340909,Assisted,3273,257,8,3
2,NSW,Blaxland,107,5,Chester Hill Central,Current,St John Mark's Anglican Church,125 Proctor Pde, ,,CHESTER HILL,NSW,2162,160,,,Entrance:Proctor Pde,-33.8873,151.001,1340910,Assisted,1483,211,3,2
2,NSW,Blaxland,107,5,Chester Hill North,Current,Chester Hill High School,Miller Rd, ,,CHESTER HILL,NSW,2162,2376,,,Entrance:Miller Rd,-33.8737,150.996,1340802,Assisted,2277,296,6,3
2,NSW,Blaxland,107,5,Condell Park,Current,Condell Park Public School,Augusta St,,,CONDELL PARK,NSW,2200,167,,,Entrances:Augusta St           Birdsall Ave,-33.9255,151.013,1342110,Assisted,3673,382,8,4
2,NSW,Blaxland,107,5,Condell Park North,Current,St Clement's Anglican Church,195 Edgar St,,,CONDELL PARK,NSW,2200,33117,,,Entrance:Edgar St,-33.9228609,151.0129563,1341902,Full,785,146,2,2
2,NSW,Blaxland,107,5,Condell Park South,Current,Bankstown Senior College,Eldridge Rd, ,,BANKSTOWN,NSW,2200,168,,Antwerp St,Entrance:Antwerp St,-33.931105,151.0216557,1342008,Assisted,2428,298,6,3
2,NSW,Blaxland,107,5,Condell Park West,Current,Condell Park High School,Third Ave,,,CONDELL PARK,NSW,2200,47792,,,Entrance:Third Ave,-33.923606,151.002972,1341909,None,1017,127,3,2
2,NSW,Blaxland,107,5,Fairfield East (Blaxland),Current,Fairfield City Leisure Centre,Vine St,,,FAIRFIELD,NSW,2165,43752,,,Main entrance to Leisure Centre,-33.8751,150.961,1320802,Assisted,381,21,1,0
2,NSW,Blaxland,107,5,Fowler Road (Blaxland),Current,Merrylands Public School,Fowler Rd,,,MERRYLANDS,NSW,2160,56666,,,Pedestrian gate on Fowler Rd and one on Holdsworth St,-33.8409,150.976,1331903,None,408,9,1,0
2,NSW,Blaxland,107,5,Georges Hall,Current,Georges Hall Public School,Pennington Ave, ,,GEORGES HALL,NSW,2198,169,,,Entrance:Pennington Ave - 2 small gates and car park entrance,-33.9120805,150.9925655,1341706,None,2931,304,7,3
2,NSW,Blaxland,107,5,Granville East (Blaxland),Current,Granville East Public School,210 The Trongate,,,SOUTH GRANVILLE,NSW,2142,46624,,Blaxcell St,Entrance: Blaxcell St - Pedestrian Gate,-33.8481385,151.0106418,1331509,Assisted,1072,228,4,3
2,NSW,Blaxland,107,5,Granville South (Blaxland),Current,Granville South Public School,cnr Woodville Rd,& Oxford St, ,GUILDFORD,NSW,2161,2380,,,Entrances:Oxford St - driveway gate           Highland St - pedestrian gate,-33.8488183,150.9961068,1331602,None,1332,225,3,3
2,NSW,Blaxland,107,5,Guildford,Current,Guildford Public School,Apia St, ,,GUILDFORD,NSW,2161,2381,,,Entrance: Apia St,-33.8553985,150.9813992,1332001,Full,2220,219,6,2
2,NSW,Blaxland,107,5,Guildford East,Current,St Mary's Anglican Church Hall,2 Bolton St, ,,GUILDFORD,NSW,2161,2382,,,Entrance: Bolton St,-33.8546727,150.9884935,1331613,None,2469,415,6,4
2,NSW,Blaxland,107,5,Guildford South,Current,Granville South Creative and Performing Arts High School,Rowley St, ,,GUILDFORD,NSW,2161,2390,,,Entrance: Rowley St,-33.8608949,150.9962856,1331502,None,1353,171,4,2
2,NSW,Blaxland,107,5,Guildford West,Current,Guildford West Public School,23-51 Palmer St, ,,GUILDFORD WEST,NSW,2161,2345,School Hall,Princes St,Entrance: Princes St,-33.8471,150.967,1332106,Assisted,3194,345,8,4
2,NSW,Blaxland,107,5,Merrylands (Blaxland),Current,"St Thomas Hall, Merrylands",Farnell St, ,,MERRYLANDS,NSW,2160,56671,,,Gate on Farnell St (main entrance) ate on Bradman St (exit),-33.8433,150.999,1331706,None,476,10,1,0
2,NSW,Blaxland,107,5,Old Guildford,Abolition,,,,,,,,2349,,,,,,0,,0,0,0,0
2,NSW,Blaxland,107,5,Regents Park,Current,Regents Park Public School,cnr Auburn Rd & Bagdad St,,,REGENTS PARK,NSW,2143,2391,School Hall,Bagdad St,Entrance: Bagdad St - 2 entrances,-33.885711,151.023368,1341209,Assisted,1439,199,3,2
2,NSW,Blaxland,107,5,Sefton,Current,Immaculate Heart of Mary School,30 Proctor Pde, ,,SEFTON,NSW,2162,2393,,,Entrances: Proctor Pde            Kara St,-33.8872,151.009,1340908,Assisted,2354,170,5,2
2,NSW,Blaxland,107,5,Sydney (Blaxland),Current,Sydney Town Hall,George St, ,,SYDNEY,NSW,2000,32339,,Sydney Town Hall Square,via Town Hall Square,-33.8735,151.207,1400114,Assisted,95,11,0,0
2,NSW,Blaxland,107,5,Villawood,Current,Carramar Public School,cnr The Horsley Dr & Denison St, ,,VILLAWOOD,NSW,2163,2358,,Denison St,Entrance:Denison St - Pedestrian gate,-33.8854807,150.9698132,1321002,None,1988,238,5,3
2,NSW,Blaxland,107,5,Villawood East,Current,Villawood East Public School,Lowana St, ,,VILLAWOOD,NSW,2163,2396,,,Entrance:Lowana Street- Pedestrian Gate and carpark entrance,-33.8895,150.986,1341001,Assisted,1623,156,5,2
2,NSW,Blaxland,107,5,Villawood North,Current,Villawood North Public School,Bligh St, ,,VILLAWOOD,NSW,2163,2359,,,Entrances:Bligh Street 2 gates           Tangerine Street 1 gate,-33.8766,150.972,1320906,Assisted,1845,319,5,3
2,NSW,Blaxland,107,5,Yagoona,Current,Yagoona Senior Citizens Centre,"Gazzard Park, Cooper Rd", ,,YAGOONA,NSW,2199,180,,Hume Hwy,Entrance:Cooper Rd          Hume Hwy- pathway adjacent to railway station,-33.9056,151.025,1341212,Full,2617,283,7,3
2,NSW,Blaxland,107,5,Yagoona West,Current,St Mark's Church Yagoona,213 Auburn Rd, ,,YAGOONA,NSW,2199,182,,,Entrance:Auburn Rd- steps and driveway (no gates),-33.9064,151.021,1341211,None,1527,141,5,2
2,NSW,Blaxland,107,5,Yennora,Current,Yennora Public School,6-12 Ellis Pde, ,,YENNORA,NSW,2161,2362,,,Entrances:Orchardleigh St-pedestrian gate & Ellis Pde-Pedestrian Gate,-33.867,150.971,1320901,None,1859,337,4,4
2,NSW,Bradfield,108,6,Asquith (Bradfield),Current,Asquith Public School,Dudley St, ,,ASQUITH,NSW,2077,115,,,Dudley St - 2 entries Hazlemead Rd - 1 gate,-33.6855,151.112,1251613,Assisted,1452,120,3,2
2,NSW,Bradfield,108,6,Bowden Brae,Current,Bowden Brae Retirement Village,40 Pennant Hills Rd, ,,NORMANHURST,NSW,2076,119,Auditorium,Jasmine Rd,Auditorium via Jasmine Rd,-33.7214,151.103,1251410,None,484,73,2,2
2,NSW,Bradfield,108,6,Chatswood (Bradfield),Abolition,,,,,,,,56720,,,,,,0,,0,0,0,0
2,NSW,Bradfield,108,6,Chatswood North,Current,Chatswood Guide Hall,Anglo St, ,,CHATSWOOD,NSW,2067,2015,,,Anglo St- level access The Crescent- stair access,-33.79447,151.17519,1382212,None,485,85,1,1
2,NSW,Bradfield,108,6,Chatswood West (Bradfield),Current,Chatswood Public School,Pacific Hwy, ,,CHATSWOOD,NSW,2067,56721,,,1 gate and 1 driveway - Pacific Hwy (close together) 1 gate - Centennial Ave,-33.7983058,151.1781717,1382209,None,740,0,2,0
2,NSW,Bradfield,108,6,Gordon,Current,St John's Anglican Church Hall,754 Pacific Hwy,,,GORDON,NSW,2072,194,,,Pacific Highway  2 gates and driveway,-33.75679,151.15251,1371103,None,2821,275,6,3
2,NSW,Bradfield,108,6,Gordon East,Current,Gordon East Public School,Rosedale Rd, ,,GORDON,NSW,2072,195,,,Rosedale Rd - 1 gate & 1 driveway Cameron Rd - 1 gate & 1 driveway,-33.7459209,151.1574345,1370801,Assisted,2141,102,5,1
2,NSW,Bradfield,108,6,Gordon West,Current,Gordon West Public School,Ryde Rd, ,,WEST PYMBLE,NSW,2073,196,,,Ryde Rd - 1 gate Kooyong St - 1 gates & 1 driveway Kippara St - pathway,-33.7601,151.139,1371105,Assisted,1865,172,4,2
2,NSW,Bradfield,108,6,Hornsby (Bradfield),Current,Hornsby TAFE College,205 Pacific Hwy, ,,HORNSBY,NSW,2077,43833,Canteen,,Pacific Hwy - 2 paths,-33.7,151.097,1250607,Assisted,413,0,1,0
2,NSW,Bradfield,108,6,Hornsby Central (Bradfield),Current,Hornsby Girls High School,Edgeworth David Ave, ,,HORNSBY,NSW,2077,127,,,Edgeworth David Ave - 1 gate & 1 d/way Thomas St - 1 driveway,-33.7064,151.102,1251517,None,2798,317,6,3
2,NSW,Bradfield,108,6,Hornsby East,Current,Hornsby Youth & Family Community Centre,cnr Muriel and Burdett Sts,,,HORNSBY,NSW,2077,33771,,,Muriel St - gate via ramp Burdett St - gate via ramp,-33.7031,151.10312,1251506,Assisted,1185,187,3,2
2,NSW,Bradfield,108,6,Hornsby Hospital,Abolition,Waitara Anglican Church,cnr Palmerston Rd & Burdett St,,,WAITARA,NSW,2077,125,,,,,,0,,0,0,0,0
2,NSW,Bradfield,108,6,Killara,Current,St Martin's Anglican Church Hall,9b Arnold St, ,,KILLARA,NSW,2071,198,,,1 gate and 1 driveway - Arnold St,-33.7662135,151.1645279,1371005,None,1677,101,4,1
2,NSW,Bradfield,108,6,Killara East,Current,Killara High School,Koola Ave, ,,KILLARA,NSW,2071,199,,,Koola Ave - 1 gate (gate 2),-33.7560824,151.1740076,1371009,None,1880,139,4,2
2,NSW,Bradfield,108,6,Kissing Point,Current,Turramurra High School,104 Maxwell St,,,SOUTH TURRAMURRA,NSW,2074,129,,,Maxwell Street Gate,-33.7565262,151.1131977,1370607,Assisted,1020,57,3,1
2,NSW,Bradfield,108,6,Lady Davidson Hospital,Abolition,Lady Davidson Hospital,Bobbin Head Rd, ,,NORTH TURRAMURRA,NSW,2074,130,,,,,,0,,0,0,0,0
2,NSW,Bradfield,108,6,Lindfield,Current,Korean Community Uniting Church,33 Tryon Rd,,,LINDFIELD,NSW,2070,201,Hall,Nelson Road,Nelson Road,-33.77448,151.17282,1371302,None,2100,251,5,3
2,NSW,Bradfield,108,6,Lindfield East,Current,Lindfield East Public School,90 Tryon Rd, ,,EAST LINDFIELD,NSW,2070,202,,,Tryon Rd - main entry only,-33.7681,151.184,1371310,Assisted,1909,154,4,2
2,NSW,Bradfield,108,6,Lindfield North,Current,Lindfield Public School,218 Pacific Hwy, ,,LINDFIELD,NSW,2070,203,,,1 gate  - Pacific Hwy 2 gate - Grosvenor Rd 1 gate - Gladstone Pde,-33.78106,151.16972,1371207,Assisted,2934,293,6,3
2,NSW,Bradfield,108,6,Lindfield West,Current,Beaumont Road Public School,17 Beaumont Rd, ,,KILLARA,NSW,2071,204,Double classroom behind hall,,Beaumont Rd - 3 gates,-33.77468,151.14553,1371111,Assisted,2810,266,6,4
2,NSW,Bradfield,108,6,Normanhurst (Bradfield),Current,Normanhurst Public School,Normanhurst Rd, ,,NORMANHURST,NSW,2076,133,,,Normanhurst Rd - Pedestrian gate and driveway,-33.7237,151.098,1251410,None,1561,163,4,2
2,NSW,Bradfield,108,6,Pymble,Current,Sacred Heart Parish Hall,cnr Pacific Hwy & Bobbin Head Rd, ,,PYMBLE,NSW,2073,206,,,2 gates - Bobbin Head Rd 1 gate - Richard Porter Way,-33.7395,151.137,1370807,None,1118,63,3,1
2,NSW,Bradfield,108,6,Pymble North,Current,Pymble Public School,Crown Rd, ,,PYMBLE,NSW,2073,137,,,Main gate  - Crown Rd Side entrance Reservoir Rd Back entrance - Rushall St (steps),-33.731839,151.1411654,1370806,None,2558,117,6,2
2,NSW,Bradfield,108,6,Pymble West,Current,West Pymble Public School,Apollo Ave, ,,WEST PYMBLE,NSW,2073,207,,,1 gate Apollo Ave 1 gate Diana Ave 1 gate off lane Tristania Pl,-33.76394,151.12354,1370707,Assisted,2157,124,5,2
2,NSW,Bradfield,108,6,Roseville,Current,St Andrew's Anglican Church,1 Bancroft Ave,,,ROSEVILLE,NSW,2069,208,,Hill St,Entrance - Hill Street,-33.7853513,151.1793831,1371406,None,1601,140,4,2
2,NSW,Bradfield,108,6,Roseville Chase,Current,East Roseville Community Centre,6 Babbage Rd, ,,ROSEVILLE,NSW,2069,209,,,Main Entrance to Hall Babbage Rd Carpark - Park St,-33.7795,151.195,1371401,Assisted,952,132,2,2
2,NSW,Bradfield,108,6,Roseville East,Current,Roseville Public School,Archbold Rd, ,,ROSEVILLE,NSW,2069,210,,Duntroon Ave,2 entrances closest to hall  - Duntroon Ave 2 entrances in Archbold Rd 2 entrances in Addison Ave,-33.782,151.188,1371406,Assisted,1020,94,3,1
2,NSW,Bradfield,108,6,Roseville South (Bradfield),Current,St Barnabas' Anglican Church,cnr William & Macquarie Sts, ,,ROSEVILLE,NSW,2069,2032,,,Macquarie St driveway Gate William Street East,-33.786608,151.1895499,1382404,None,851,77,2,1
2,NSW,Bradfield,108,6,St Ives,Current,St Ives Community Hall,"Village Green, Memorial Ave", ,,ST IVES,NSW,2075,211,,,"Open access to Village Green from Memorial Ave, Village Green Rd and Cowan Rd.",-33.7291,151.1604,1370308,Assisted,1979,212,4,2
2,NSW,Bradfield,108,6,St Ives Chase,Current,St Ives North Scout Hall,Warrimoo Ave,,,ST IVES CHASE,NSW,2075,212,,,Warrimoo Ave Path from street Pathway from Warrimoo Oval car park,-33.7084749,151.1632003,1370203,None,970,45,2,1
2,NSW,Bradfield,108,6,St Ives North,Current,St Ives North Public School,87 Memorial Ave, ,,ST IVES,NSW,2075,213,,,Memorial Ave - Main entrance gate and dr iveway Toolang Rd - Gate,-33.7187,151.164,1370303,Assisted,2584,148,6,2
2,NSW,Bradfield,108,6,St Ives Park,Current,St Ives Park Public School,7 Acron Road, ,,ST IVES,NSW,2075,188,,,Acron Rd - 2 gates & 1 driveway Woodbury Rd - 1 gates,-33.72443,151.17794,1370906,Assisted,2058,110,5,1
2,NSW,Bradfield,108,6,St Ives South,Current,St Ives High School,Yarrabung Rd, ,,ST IVES,NSW,2075,214,,,1 pedestrian gate - Yarrabung Rd,-33.7403,151.167,1370906,Assisted,2742,173,6,2
2,NSW,Bradfield,108,6,Sydney (Bradfield),Current,Sydney Town Hall,George St, ,,SYDNEY,NSW,2000,31029,,Sydney Town Hall Square,via Town Hall Square,-33.8735,151.207,1400114,Assisted,126,6,0,0
2,NSW,Bradfield,108,6,Thornleigh (Bradfield),Current,Chinese & Aust Baptist Church,235 Pennant Hills Rd, ,,THORNLEIGH,NSW,2120,138,,Loch Maree Ave,Enter Loch Maree Ave,-33.7282,151.085,1251405,Assisted,1036,99,3,1
2,NSW,Bradfield,108,6,Turramurra,Current,St James' Anglican Church Hall,King St, ,,TURRAMURRA,NSW,2074,139,,,Main hall door accessed from either King  St or St James Lane.,-33.7292,151.128,1370811,Assisted,629,50,2,1
2,NSW,Bradfield,108,6,Turramurra Central,Current,Turramurra Uniting Church Hall,Turramurra Ave, ,,TURRAMURRA,NSW,2074,140,,,Gilroy Lane - direct access from car par k to hall Main entrance  - Turramurra Ave Rear access - Gilroy St (with stairs),-33.7321594,151.1305515,1370810,Assisted,1962,145,4,2
2,NSW,Bradfield,108,6,Turramurra North,Current,Turramurra North Public School,237 Bobbin Head Rd, ,,NORTH TURRAMURRA,NSW,2074,141,,,Bobbin Head Rd - 2 gates & 1 driveway Normurra Ave - pathway Allara Ave - pathway,-33.7147,151.147,1370104,None,2679,208,6,2
2,NSW,Bradfield,108,6,Turramurra South,Current,Turramurra Public School,Kissing Point Rd, ,,TURRAMURRA,NSW,2074,142,,,2 gates Kissing Point Rd,-33.7446,151.113,1370506,None,2799,169,6,2
2,NSW,Bradfield,108,6,Turramurra Valley,Appointment,Lady Davidson Hospital,Bobbin Head Rd, ,,NORTH TURRAMURRA,NSW,2074,130,,,Main Hospital entrance Bobbin Head Rd,-33.6916382,151.151591,1370114,Full,345,66,2,1
2,NSW,Bradfield,108,6,Wahroonga,Current,Wahroonga Presbyterian Church Hall,cnr Stuart St & Illoura Ave, ,,WAHROONGA,NSW,2076,143,,,1 driveway entrance Illoura Ave,-33.716189,151.1182789,1370411,None,2652,209,6,2
2,NSW,Bradfield,108,6,Wahroonga East,Current,Wahroonga Public School,71 Burns Rd, ,,WAHROONGA,NSW,2076,144,,,Burns Rd - 2 gates Water St - pathway,-33.7155,151.128,1370404,Assisted,2583,164,6,2
2,NSW,Bradfield,108,6,Waitara,Current,Waitara Public School,68 Edgeworth David Ave, ,,WAHROONGA,NSW,2076,145,,,Edgeworth David Ave - 1 gate Myra St - 1 gate Highlands Ave - 1 driveway,-33.7081,151.111,1251502,Assisted,2219,298,5,3
2,NSW,Bradfield,108,6,Waitara North,Appointment,Waitara Anglican Church,cnr Palmerston Rd & Burdett St,,,WAITARA,NSW,2077,125,,,,-33.7041743,151.1111134,1251501,Assisted,995,92,2,1
2,NSW,Bradfield,108,6,Waitara South,Current,The Light of Christ Centre Hall,Yardley Ave,,,WAITARA,NSW,2077,146,,Rear of Primary School,Yardley Ave Gate,-33.7133693,151.1034831,1251504,Assisted,855,91,2,1
2,NSW,Bradfield,108,6,Warrawee,Current,Warrawee Public School,Pacific Hwy, ,,WARRAWEE,NSW,2074,147,,,Pacific Hwy - 1 gate & 1 driveway Blytheswood Ave - 1 driveway,-33.73,151.123,1370503,Assisted,2664,278,6,3
2,NSW,Calare,109,7,Alectown,Current,Soldiers Memorial Hall,Newell Hwy, ,,ALECTOWN,NSW,2870,2148,,,Entrance to the polling place via Newell Hwy,-32.9328,148.24,1030804,Assisted,162,21,1,0
2,NSW,Calare,109,7,Barry,Current,Barry Community Hall,21 Selwyn St, ,,BARRY,NSW,2799,219,,,Entrance to the polling place via Selwyn St,-33.6464839,149.2717135,1141205,Assisted,152,4,1,0
2,NSW,Calare,109,7,Bathurst,Current,Bathurst Public School,George St, ,,BATHURST,NSW,2795,220,McMullen Hall,Lambert St,Entrance to school grounds via disabled access entrance in Lambert St Entrance to polling place is along pathway from disabled entrance in Lambert St that leads directly to McMullen Hall,-33.4217,149.571,1141806,Assisted,2009,236,5,3
2,NSW,Calare,109,7,Bathurst Central,Current,Catholic Cathedral Parish Centre,Keppel St, ,,BATHURST,NSW,2795,221,Chapel Room,,3 entrances to grounds via Keppel St which includes the carpark entrance Entrance to polling place via doorway to cathedral centre,-33.42,149.577,1141805,Assisted,1275,178,3,2
2,NSW,Calare,109,7,Bathurst City,Current,St Stephen's Presbyterian Church Hall,236 Howick St,,,BATHURST,NSW,2795,31071,,,Entrance to the polling place via Howick St,-33.4163,149.58,1141804,None,1348,232,3,3
2,NSW,Calare,109,7,Bathurst High,Current,Bathurst High School,Hope St, ,,BATHURST,NSW,2795,223,,Piper St,Main entrances to school grounds via Piper St Main entrance to polling place via Piper St,-33.4129,149.569,1141810,Assisted,867,69,2,1
2,NSW,Calare,109,7,Bathurst Hospital,Current,Daffodil Cottage,cnr Howick St & Commonwealth St,,,BATHURST,NSW,2795,224,,,2 entrances to the polling place via Howick St The building is located on the corner of Howick and Commonwealth Sts,-33.406,149.571,1141812,Full,892,67,2,1
2,NSW,Calare,109,7,Bathurst South,Current,Bathurst South Public School,Havannah St, ,,BATHURST,NSW,2795,225,,,2 entrances to school grounds via Havannah St - one pedestrian and the other vehicle and pedestrian Entrance to polling place via main doors to hall,-33.4337,149.569,1141808,Assisted,1172,116,3,2
2,NSW,Calare,109,7,Bathurst St Vincents,Abolition,,,,,,,,226,,,,,,0,,0,0,0,0
2,NSW,Calare,109,7,Bathurst West,Current,Bathurst West Public School,Suttor St, ,,WEST BATHURST,NSW,2795,227,,,3 entrances to polling place via Suttor St,-33.4118,149.559,1141902,Assisted,2199,203,5,2
2,NSW,Calare,109,7,Bedgerabong,Appointment,Bedgerabong Public School,7 Golding Ave, ,,BEDGERABONG,NSW,2871,2153,,,Entrance to school grounds is via Golding Ave which is located off Bedgerabong Rd Entrance to polling place via main doors to practical activities area,-33.3623,147.678,1030603,None,299,67,1,0
2,NSW,Calare,109,7,Bedgerebong,Abolition,Bedgerabong Public School,7 Golding Ave, ,,BEDGERABONG,NSW,2871,2153,,,,,,0,,0,0,0,0
2,NSW,Calare,109,7,Black Springs,Current,Black Springs Public School,Avoca St, ,,BLACK SPRINGS,NSW,2787,1750,,,Entrance to polling place via Vulcan St,-33.8463,149.742,1142006,None,202,16,1,0
2,NSW,Calare,109,7,Blayney,Current,Blayney Public School,Lindsay St, ,,BLAYNEY,NSW,2799,228,,,Entrance to school grounds via Lindsay St Entrance to polling place via main door to hall,-33.529,149.252,1141107,Assisted,1900,125,4,2
2,NSW,Calare,109,7,Bletchington,Current,Bletchington Public School,Matthews Ave, ,,ORANGE,NSW,2800,229,Communal Hall,,Entrance to school grounds via staff car park Entrance to polling place via main doors to hall,-33.2693,149.103,1140802,Assisted,3065,199,7,2
2,NSW,Calare,109,7,Bloomfield Hospital,Abolition,Community Health Service Meeting Room,1530 Forest Rd,,,ORANGE,NSW,2800,230,,,,,,0,,0,0,0,0
2,NSW,Calare,109,7,Bogan Gate,Current,Bogan Gate Public School,Bogan St, ,,BOGAN GATE,NSW,2876,2156,,,Entrance to polling place via Bogan St,-33.1054887,147.7979378,1030801,Assisted,188,7,1,0
2,NSW,Calare,109,7,Borenore,Current,Borenore Public School,The Escort Way, ,,BORENORE,NSW,2800,2157,,,Entrance to the polling place via The Escort Way,-33.251,148.984,1140302,None,355,25,1,0
2,NSW,Calare,109,7,Bowen,Current,Bowen Public School,Park St, ,,ORANGE,NSW,2800,231,,,Entrance to polling place via Park St,-33.2802,149.118,1140814,Assisted,2302,161,5,2
2,NSW,Calare,109,7,Bowenfels South,Current,Presbyterian Church Hall,Great Western Hwy, ,,SOUTH BOWENFELS,NSW,2790,232,,,Entrance to grounds via Great Western Hwy (12 Mudgee St) Entrance to the polling place via main doors of the hall - the hall is located behind the church,-33.5152,150.120477,1142312,Assisted,273,19,1,0
2,NSW,Calare,109,7,Burraga,Current,Burraga Hall,cnr Lloyd St & Edgar Hanrahan Dr,,,BURRAGA,NSW,2795,1753,,,Entrance to the polling place via corner of Lloyd St an Edgar Hanrahan Dr,-33.9482366,149.5295923,1141304,None,71,9,1,0
2,NSW,Calare,109,7,Calare School,Current,Calare Public School,Wentworth Lane, ,,ORANGE,NSW,2800,235,,Frost St,Entrance to school grounds via Frost St- all other gates will be locked Entrance to polling place via side entrance to gymnasium,-33.2872,149.08,1141007,Assisted,1810,134,4,2
2,NSW,Calare,109,7,Canobolas,Current,Canobolas Public School,386 Canobolas Rd, ,,CANOBOLAS,NSW,2800,236,,,Entrance to polling place via Canobolas Rd,-33.3062,149.047,1140604,None,237,22,1,0
2,NSW,Calare,109,7,Canowindra,Current,Canowindra High School,Browns Ave, ,,CANOWINDRA,NSW,2804,2161,Jack Sherwin Memorial Hall,,3 entrances to school grounds - 2 entrances in bus bay which includes the main entrance + 1 entrance from Browns Ave Entrance to polling place via main doors to Jack Sherwin Memorial Hall,-33.5577156,148.6706656,1140210,None,1268,201,3,2
2,NSW,Calare,109,7,Capertee,Current,Capertee Progress Hall,Castlereagh Hwy,,,CAPERTEE,NSW,2846,237,,,Entrance to polling place via Castlereagh Hwy,-33.1465683,149.9867103,1142207,Assisted,126,64,1,0
2,NSW,Calare,109,7,Carcoar,Current,Carcoar Public School,Icely St, ,,CARCOAR,NSW,2791,238,,,2 entrances via Icely St which includes the main entrance + double gates entrance onto grassed area,-33.6123,149.142,1141207,None,209,17,1,0
2,NSW,Calare,109,7,Cargo,Current,Cargo Public School,Hutton St, ,,CARGO,NSW,2800,2162,,,2 entrances to the school grounds via Hutton St - carpark entrance and disabled entrance Entrance to polling place via disabled access entrance to library,-33.4277553,148.8078627,1140306,Assisted,271,29,1,0
2,NSW,Calare,109,7,Cooerwull,Current,Cooerwull Public School,319 Main St, ,,LITHGOW,NSW,2790,241,,,2 entrances to school grounds via Main St Entrance to polling place via main door to hall,-33.4839494,150.141751,1142307,Assisted,1830,236,4,3
2,NSW,Calare,109,7,Cookamidgera,Abolition,,,,,,,,2167,,,,,,0,,0,0,0,0
2,NSW,Calare,109,7,Cudal,Current,Cudal Public School,Toogong St, ,,CUDAL,NSW,2864,2170,,,Entrance to polling place via Toogong St,-33.2873619,148.7403241,1140202,None,402,33,1,0
2,NSW,Calare,109,7,Cullen Bullen,Current,Cullen Bullen Progress Hall,37-39 Castlereagh Hwy, ,,CULLEN BULLEN,NSW,2790,242,,,Entrance to polling place via Castlereagh Hwy,-33.2995,150.033,1142204,Assisted,206,33,1,0
2,NSW,Calare,109,7,Cumnock,Current,Cumnock Community Centre,McLaughlan St,,,CUMNOCK,NSW,2867,2171,,,Entrance to polling place via McLaughlin St,-32.92905,148.748647,1140105,Assisted,290,37,1,0
2,NSW,Calare,109,7,Eglinton,Current,Eglinton Public School,Alexander St, ,,EGLINTON,NSW,2795,244,,,2 entrances to school grounds via Alexander St Entrance to polling place via main door to hall,-33.3778328,149.5401417,1141609,Assisted,1806,130,4,2
2,NSW,Calare,109,7,Eugowra,Current,Eugowra Public School,Hill St, ,,EUGOWRA,NSW,2806,2183,,,Entrance to school grounds via Hill St Entrance to polling place via disabled access to library,-33.4237,148.369,1140207,Assisted,520,32,2,1
2,NSW,Calare,109,7,Forbes,Current,Forbes Town Hall,Harold St, ,,FORBES,NSW,2871,2186,,,Entrance to polling place via Harold St,-33.3857356,148.007941,1030703,Assisted,2397,216,5,2
2,NSW,Calare,109,7,Forbes Hospital,Current,Health Service Conference Room,Berkley St, ,,FORBES,NSW,2871,2187,,,Main entrance to polling place via Berkley St,-33.3961181,148.0140322,1030710,None,177,15,2,1
2,NSW,Calare,109,7,Forbes North,Current,Forbes High School,18 Wyndham Ave, ,,FORBES,NSW,2871,2188,,Calarie Rd,2 entrances to school grounds via vehicle and pedestrian gate in Calarie Rd and via pedestrian gate in Wyndham Ave near the hall - all other gates will be locked Entrance to polling place via main doors to hall,-33.3629226,148.0115409,1030708,Assisted,1304,109,3,1
2,NSW,Calare,109,7,Forbes South,Current,Forbes Tennis Club,2-20 Church St,,,FORBES,NSW,2871,2189,,,Entrance to polling place via Church St,-33.3916521,148.0122682,1030703,Assisted,942,54,2,1
2,NSW,Calare,109,7,Glen Alice,Current,Glen Alice Public School,Beaumont St, ,,GLEN ALICE,NSW,2849,249,,,Entrance to polling place via Beaumont St,-33.0426996,150.2143916,1142203,None,104,16,1,0
2,NSW,Calare,109,7,Glenroi,Current,Glenroi Primary School,Maxwell Ave, ,,ORANGE,NSW,2800,250,,,2 entrances to school grounds via Maxwell Ave Entrance to polling place via main doors to hall,-33.2972043,149.1117993,1140913,Assisted,1540,130,4,2
2,NSW,Calare,109,7,Hampton,Current,Hampton Public School,Jenolan Caves Rd, ,,HAMPTON,NSW,2790,253,,,Entrance to polling place via Bindo/Jenolan Caves Rd,-33.6487525,150.0490689,1142108,None,157,21,1,0
2,NSW,Calare,109,7,Hartley,Current,Hartley Old Public School,Mid Hartley Rd, ,,HARTLEY,NSW,2790,1767,,,2 entrances to grounds via Mid Hartley Rd Entrance to polling place via main doors of hall,-33.551,150.188,1142202,None,497,37,1,1
2,NSW,Calare,109,7,Hermitage,Current,Hermitage Progress Association Hall,Albert St, ,,LITHGOW,NSW,2790,255,,,Entrance to polling place via Albert St,-33.4799,150.149,1142302,Assisted,602,33,2,1
2,NSW,Calare,109,7,Hill End,Current,Hill End Public School,Tambaroora St, ,,HILL END,NSW,2850,256,,,Entrance to polling place via Tambaroora St,-33.0349,149.416,1141501,None,79,35,1,0
2,NSW,Calare,109,7,Kelso,Current,Kelso Public School,19 Gilmour St, ,,KELSO,NSW,2795,260,,,2 entrances to school grounds via Boyd St and Barina Parkway Entrance to polling place via main doors to hall,-33.4176,149.604,1141702,Assisted,2970,260,6,3
2,NSW,Calare,109,7,Lithgow,Current,Lithgow Primary School,163 Mort St, ,,LITHGOW,NSW,2790,262,,Eskbank St,2 entrances to school grounds via Eskbank St - all other gates will be locked Entrance to polling place via main doors to hall,-33.4818,150.16,1142406,Assisted,1477,182,3,2
2,NSW,Calare,109,7,Lithgow Hospital,Current,Health Service Education Room,Col Drewe Dr, ,,SOUTH BOWENFELS,NSW,2790,263,,,Entrance to polling place via main entrance to the hospital from the car park,-33.499053,150.127397,1142213,Assisted,142,16,2,1
2,NSW,Calare,109,7,Littleton,Current,La Salle Academy,96 Rabaul St, ,,LITHGOW,NSW,2790,264,,,2 entrances to grounds via Rabaul St and car park entrance Entrance to polling place via door to classroom,-33.4955,150.133,1142311,None,495,20,1,0
2,NSW,Calare,109,7,Lucknow,Current,Lucknow School Community Hall,Newman St, ,,LUCKNOW,NSW,2800,265,,,Entrance to polling place via Newman St,-33.3445,149.161,1140609,Assisted,274,22,1,0
2,NSW,Calare,109,7,Lyndhurst,Current,Lyndhurst Public School,Marsden St, ,,LYNDHURST,NSW,2797,267,,,Entrance to polling place via Marsden St,-33.6738179,149.0445601,1141203,Assisted,234,36,1,0
2,NSW,Calare,109,7,Mandurama,Current,Mandurama Public School,Loquat St, ,,MANDURAMA,NSW,2792,269,,,2 entrances to polling place via Loquat St,-33.6518,149.07,1141209,Assisted,213,9,1,0
2,NSW,Calare,109,7,Manildra,Current,St Joseph's Primary School,65-69 Loftus St,,,MANILDRA,NSW,2865,2201,,Derowie St,2 entrances to school grounds - main entrance via Derowie St and entrance via Loftus St Entrance to polling place via main doors to hall,-33.1837915,148.691797,1140201,None,487,32,1,1
2,NSW,Calare,109,7,Meadow Flat,Current,Meadow Flat Public School,2630 Great Western Hwy, ,,MEADOW FLAT,NSW,2795,272,,,1 entrance to school grounds via Morell St carpark Entrance to polling place via disabled access to the library,-33.4344484,149.9201679,1142102,Assisted,224,26,1,0
2,NSW,Calare,109,7,Millthorpe,Current,Millthorpe Public School,Park St, ,,MILLTHORPE,NSW,2798,273,,,3 entrances to school grounds 2 entrances via Park St which includes the main entrance + entrance via Boomerang St which is at the rear of the hall Entrance to the polling place via main doors to hall,-33.4454758,149.1857157,1141103,Assisted,904,79,2,1
2,NSW,Calare,109,7,Mitchell Campus,Current,Charles Sturt University,Panorama Ave, ,,MITCHELL,NSW,2795,274,Rafters Auditorium,,2 entrances to the polling place - one from front entrance to building C4 with the second entrance at the rear of building C4 near carpark P10,-33.4320208,149.559717,1141808,Assisted,115,219,1,4
2,NSW,Calare,109,7,Molong,Current,Molong Community Hall,Bank St,,,MOLONG,NSW,2866,2203,,,3 entrances to polling place via Edward St,-33.0948742,148.865605,1140108,None,1417,143,3,2
2,NSW,Calare,109,7,Mullion Creek,Current,Mullion Creek Public School,Long Point Rd, ,,MULLION CREEK,NSW,2800,2205,,,2 entrances to the school grounds - one via Long Point Rd and another via a side street Entrance to polling place via disabled access entrance to library,-33.1391,149.121,1141401,Assisted,421,29,1,0
2,NSW,Calare,109,7,Nashdale,Current,Nashdale Public School,Nancarrow Lane, ,,NASHDALE,NSW,2800,2209,,,2 entrances to school grounds via Nancarrow La 2 entrances to polling place via steps and disabled access to library,-33.2940709,149.0123866,1140303,Assisted,448,35,1,0
2,NSW,Calare,109,7,Neville,Current,Neville Public School,Crouch St, ,,NEVILLE,NSW,2799,280,,,2 entrances to school grounds via Crouch St Entrance to polling place via disabled access to classroom,-33.709,149.217,1141205,Assisted,128,30,1,0
2,NSW,Calare,109,7,Newbridge,Abolition,,,,,,,,281,,,,,,0,,0,0,0,0
2,NSW,Calare,109,7,O'Connell,Current,O'Connell Public School,15 Blacks Mill Lane, ,,O'CONNELL,NSW,2795,1796,,,Entrance to polling place via Blacks Mill La,-33.5245,149.72,1140404,None,337,35,1,0
2,NSW,Calare,109,7,Oakey Park,Current,Zig Zag Public School,23 Victoria Ave, ,,LITHGOW,NSW,2790,282,,,3 entrances to school grounds via Victoria Ave Entrance to polling place via disabled access to classroom,-33.466,150.183,1142411,Assisted,344,23,1,0
2,NSW,Calare,109,7,Oberon,Current,Oberon High School,Ross St, ,,OBERON,NSW,2787,1795,,,Entrance to school grounds via Ross St Main entrance to polling place via doors to gymnasium,-33.7021,149.859,1142010,Assisted,1995,224,4,3
2,NSW,Calare,109,7,Orange,Current,Orange Public School,78 Kite St,,,ORANGE,NSW,2800,283,,Sale St,Entrance to school grounds via double gates in Sale St - all other gates will be locked Entrance to polling place via main doors to hall,-33.2854901,149.0968798,1140901,Assisted,2186,252,5,3
2,NSW,Calare,109,7,Orange East,Current,St Barnabas Parish Hall,381 Summer St, ,,ORANGE,NSW,2800,284,,Dora St,Entrance to polling place via Dora St,-33.2848161,149.1078578,1140806,Assisted,1709,171,4,2
2,NSW,Calare,109,7,Orange Hospital,Abolition,,,,,,,,285,,,,,,0,,0,0,0,0
2,NSW,Calare,109,7,Orange Hospital Bloomfield,Appointment,Community Health Service Meeting Room,1530 Forest Rd,,,ORANGE,NSW,2800,230,,,Entrance to hospital via rear/east entrance Entrance to the polling place via doorway to Community Health meeting room,-33.3169716,149.0936057,1140909,Full,157,92,2,1
2,NSW,Calare,109,7,Orange North,Current,Kenna Hall,86-88 Hill St,,,ORANGE,NSW,2800,286,,,Entrance to polling place via Hill St,-33.2798185,149.0946465,1140709,Assisted,1458,164,3,2
2,NSW,Calare,109,7,Orange North West,Appointment,Orange Anglican Grammar School,7 Murphy La,,,ORANGE,NSW,2800,65686,Hall,,Enter school grounds and enter roundabout. Follow signs to the media centre. Enter polling place from main school car park.,-33.2583532,149.0726671,1140610,Assisted,591,13,2,0
2,NSW,Calare,109,7,Orange South,Current,Anson Street Public School,92 Anson St, ,,ORANGE,NSW,2800,287,,,2 entrances to school grounds via Anson St Entrance to polling place via main doors to hall,-33.293091,149.0970536,1140914,Assisted,1345,77,3,1
2,NSW,Calare,109,7,Orange West,Current,Orange High School,Woodward St, ,,ORANGE,NSW,2800,288,,,2 entrances to school grounds via Woodward St - includes pedestrian entrance and carpark entrance - all other gates will be locked Entrance to polling place via main doors to hall,-33.2809,149.086,1140706,None,2431,215,5,2
2,NSW,Calare,109,7,Parkes,Current,Parkes Shire Council,Bogan St,,,PARKES,NSW,2870,2215,Coventry Room,,Entrance to polling place via commencement of access paths to front and rear doors of Library/Cultural Centre building,-33.1386,148.173,1030904,Assisted,1527,193,4,2
2,NSW,Calare,109,7,Parkes East,Current,Parkes East Primary School,1-3 Thornbury St, ,,PARKES,NSW,2870,2216,,Wellington Rd,2 entrances to school grounds via main entrance of Renshaw McGirr Way (Wellinton Rd) and Thornbury Rd Entrance to polling place via main doors to hall,-33.1354,148.19,1031001,Assisted,1083,75,3,1
2,NSW,Calare,109,7,Parkes Hospital,Current,Health Service Education Centre,Rose St, ,,PARKES,NSW,2870,2218,,,Main entrance to the polling place via Rose St. Other numerous access points to the hospital grounds can be obtained via Coleman Rd and Rose St. The hospital carpark is located in Coleman Rd.,-33.1274566,148.1688176,1030901,Assisted,615,34,2,1
2,NSW,Calare,109,7,Parkes North,Current,Parkes High School,Albert St, ,,PARKES,NSW,2870,2217,,,Main entrance to polling place via the double gates in Albert St near the auditorium,-33.1303,148.18,1031002,Assisted,865,84,2,1
2,NSW,Calare,109,7,Parkes South,Current,Middleton Public School,Medlyn St,,,PARKES,NSW,2870,2221,,,Entrance to school grounds via Medlyn St Entrance to polling place via main doors of hall,-33.1478,148.173,1030911,None,827,73,2,1
2,NSW,Calare,109,7,Parkes West,Current,Assemblies of God Hall,Rees Ave, ,,PARKES,NSW,2870,2222,,,Entrance to polling place via Rees Ave,-33.1351,148.17,1030903,Assisted,919,61,2,1
2,NSW,Calare,109,7,Peak Hill,Current,Leisure Arts & Craft Centre,162 Caswell St, ,,PEAK HILL,NSW,2869,2219,,,Entrance to polling place via Caswell St,-32.7311849,148.193582,1031107,Assisted,615,89,2,1
2,NSW,Calare,109,7,Peel,Current,Old School House,West St,,,PEEL,NSW,2795,289,,,Entrance via West St,-33.3094,149.635,1141503,None,176,7,1,0
2,NSW,Calare,109,7,Perthville,Current,Perthville Public School,Rockley St, ,,PERTHVILLE,NSW,2795,290,,,2 entrances to school grounds - main entrance via Church St and entrance via Rockley St Entrance to polling place via disabled access to classroom,-33.4912774,149.5491994,1141605,Assisted,647,30,2,1
2,NSW,Calare,109,7,Portland,Current,Portland Central School,14 Vale St, ,,PORTLAND,NSW,2847,291,,Villiers St,Entrance to school grounds via Villiers St Entrance to polling place via rear entrance to gymnasium,-33.3551735,149.9792727,1142103,Assisted,1247,104,3,1
2,NSW,Calare,109,7,Raglan,Current,Raglan Public School,Nelson St, ,,RAGLAN,NSW,2795,294,,,3 entrances to school grounds - 2 via Nelson St and 1 via Godfrey St Entrance to polling place via main doors to hall,-33.4283,149.648,1141606,Assisted,900,67,2,1
2,NSW,Calare,109,7,Rockley,Current,Rockley Public School,34 Hill St, ,,ROCKLEY,NSW,2795,1803,,,2 entrances to polling place via Hill St,-33.69226,149.56285,1141302,None,203,21,1,0
2,NSW,Calare,109,7,Rydal,Abolition,,,,,,,,296,,,,,,0,,0,0,0,0
2,NSW,Calare,109,7,Sofala,Current,Sofala Hall,Denison St, ,,SOFALA,NSW,2795,298,,,Entrance to polling place via Denison St,-33.0805,149.691,1141504,None,66,24,1,0
2,NSW,Calare,109,7,Spring Hill,Current,Spring Hill Public School,Seaton St, ,,SPRING HILL,NSW,2800,299,,,Entrance to school grounds via Seaton St Entrance to polling place via disabled access to classroom,-33.3997,149.151,1140605,Assisted,271,19,1,0
2,NSW,Calare,109,7,Spring Terrace,Current,Spring Terrace Public School,Forest Rd, ,,SPRING TERRACE,NSW,2798,300,,,Entrance to school grounds via Forest Rd Entrance to polling place via disabled access to classroom,-33.3940137,149.0967575,1140305,Assisted,272,20,1,0
2,NSW,Calare,109,7,Sydney (Calare),Current,Sydney Town Hall,George St, ,,SYDNEY,NSW,2000,14036,,Sydney Town Hall Square,via Town Hall Square,-33.8735,151.207,1400114,Assisted,41,3,0,0
2,NSW,Calare,109,7,The Lagoon,Abolition,,,,,,,,304,,,,,,0,,0,0,0,0
2,NSW,Calare,109,7,Trundle,Current,Trundle Central School,cnr Croft & Forbes Sts, ,,TRUNDLE,NSW,2875,2228,,,2 entrances to school grounds - main entrance via Forbes St and entrance via Croft St Entrance to polling place via door to Admin building,-32.9255,147.71,1031102,Assisted,390,53,1,1
2,NSW,Calare,109,7,Trunkey,Current,Trunkey Public School,Bathurst-Goulburn Rd, ,,TRUNKEY,NSW,2795,1808,,,Entrance to school grounds via Bathurst- Goulburn Rd Entrance to polling place via door to classroom,-33.8222481,149.3288065,1141305,None,121,7,1,0
2,NSW,Calare,109,7,Tullamore,Current,Tullamore Central School,Hinkler St, ,,TULLAMORE,NSW,2874,2229,,,2 entrances to school grounds via Hinkler St Entrance to polling place via door to Admin building,-32.6356,147.565,1031103,Assisted,196,56,1,0
2,NSW,Calare,109,7,Tweed Mills,Current,Fatima Hall,1102 Great Western Hwy, ,,LITHGOW,NSW,2790,306,,,2 entrances to polling place - main entrance via carpark in Tweed Rd and pedestrian entrance via Great Western Hwy,-33.4848816,150.1348122,1142304,Assisted,858,110,2,1
2,NSW,Calare,109,7,Vale Of Clwydd,Current,Vale Of Clwydd Community Hall,9 Mort St, ,,LITHGOW,NSW,2790,308,,,Entrance to polling place via Mort St,-33.4821,150.175,1142409,Assisted,558,38,2,1
2,NSW,Calare,109,7,Wallerawang,Current,Wallerawang Public School,Barton Ave, ,,WALLERAWANG,NSW,2845,309,,,2 entrances to school grounds via Barton Ave Entrance to polling place via main doors to hall,-33.4196,150.071,1142201,Assisted,1293,85,3,1
2,NSW,Calare,109,7,Warroo,Abolition,,,,,,,,2232,,,,,,0,,0,0,0,0
2,NSW,Calare,109,7,Wattle Flat,Current,Wattle Flat Public School,Sofala Rd, ,,WATTLE FLAT,NSW,2795,310,,,2 entrances to school grounds - 1 via Sofala Rd and 1 via carpark at the rear of the school Entrance to polling place via main door to hall,-33.1422,149.692,1141510,None,182,19,1,0
2,NSW,Calare,109,7,Wirrinya,Current,Progress & Sports Association Building,Wirrinya Rd, ,,WIRRINYA,NSW,2871,2237,,,Entrance to polling place via main gate in Wirrinya Rd,-33.6681375,147.8084084,1030609,Assisted,73,11,1,0
2,NSW,Calare,109,7,Yeoval,Current,Yeoval Central School,Obley St, ,,YEOVAL,NSW,2868,2240,,,Entrance to school grounds via King St Entrance to polling place via main doors to hall,-32.7549609,148.6500868,1140102,Assisted,317,114,1,2
2,NSW,Calare,109,7,Yetholme,Current,Yetholme Community Hall,32 Porters Lane, ,,YETHOLME,NSW,2795,261,,,Entrance to polling place via Porters La,-33.4478,149.817,1141506,Assisted,177,19,1,0
2,NSW,Charlton,110,8,Arcadia Vale,Current,Arcadia Vale Public School,Glade St, ,,ARCADIA VALE,NSW,2283,323,,,Entrance to school by Glade St and Short St,-33.0608,151.58,1120707,Assisted,889,72,2,1
2,NSW,Charlton,110,8,Argenton,Current,Argenton Community Hall,Elizabeth St,,,ARGENTON,NSW,2284,324,,,Entry from Elizabeth St only,-32.93571,151.63139,1120211,Assisted,860,86,2,1
2,NSW,Charlton,110,8,Awaba,Current,Awaba Public School,Mulbring St,,,AWABA,NSW,2283,325,,,Enter through Nellinda St Gate.,-33.0111,151.538,1120304,None,257,27,1,0
2,NSW,Charlton,110,8,Barnsley,Current,Barnsley Public School,Cliffbrook St, ,,BARNSLEY,NSW,2301,326,,,All entrances off Ciffbrook St and Weir Rd Carpark,-32.9324,151.594,1120202,Assisted,1478,119,3,2
2,NSW,Charlton,110,8,Biraban,Current,Biraban Public School,Beckley St, ,,TORONTO,NSW,2283,373,,,Entrance from carpark at Beckley St and gate.,-33.0081,151.575,1120910,Assisted,1189,110,3,1
2,NSW,Charlton,110,8,Blackalls,Current,Blackalls Park Public School,Charles St, ,,BLACKALLS PARK,NSW,2283,327,,,No other entrance open,-32.9983,151.577,1120909,None,1451,95,3,1
2,NSW,Charlton,110,8,Bolton Point,Current,Bolton Point Community Hall,Middlepoint Rd,,,BOLTON POINT,NSW,2283,329,,,One entrance from footpath on Middlepoint Rd.,-33.0015119,151.6075882,1120408,Assisted,648,33,2,1
2,NSW,Charlton,110,8,Bonnells Bay,Current,Bonnells Bay Public School,Morisset Park Rd,,,BONNELLS BAY,NSW,2264,579,,,Main entrance Morisset Park Rd and ramp for disabled next to steps. Pedestrians can access school on Fishery Point Rd near school crossing.,-33.1136,151.516,1120607,None,2824,290,6,3
2,NSW,Charlton,110,8,Booragul,Current,Booragul Public School,2A Aspinall St, ,,BOORAGUL,NSW,2284,331,,,"Main entrance on Aspinall St, additional entrance open on Marmong St",-32.9736935,151.6110609,1120412,Assisted,1287,101,3,1
2,NSW,Charlton,110,8,Cameron Park,Appointment,Cameron Park Community Centre,107 Northlakes Dr,,,CAMERON PARK,NSW,2285,38331,,,Northlakes Dr front and back doors to hall open.,-32.909808,151.61079,1120113,Assisted,1616,73,4,1
2,NSW,Charlton,110,8,Cardiff,Current,Cardiff Public School,Macquarie Rd, ,,CARDIFF,NSW,2285,333,,,Entrances off Macquarie Rd and Russell St.,-32.9465,151.658,1121310,Assisted,2735,286,6,3
2,NSW,Charlton,110,8,Cardiff East,Current,John Young Community Hall,24 Thomas St,,,CARDIFF,NSW,2285,334,,,One entrance direct from footpath on Thomas St.,-32.9431952,151.6626115,1121304,Assisted,510,64,2,1
2,NSW,Charlton,110,8,Cardiff Heights,Current,Cardiff Heights Baptist Church,35 Main Rd,,,CARDIFF HEIGHTS,NSW,2285,335,,,Entrance from car park on Main Rd,-32.9377159,151.6830912,1121409,Assisted,1031,88,3,1
2,NSW,Charlton,110,8,Cardiff North,Current,Cardiff North Public School,Wansbeck Valley Rd, ,,CARDIFF,NSW,2285,336,,,Entrance off Wansbeck Valley Rd and Bryon St. Byron St access for elderly and parking for disabled.,-32.9372,151.665,1121305,Assisted,1518,113,4,2
2,NSW,Charlton,110,8,Cardiff South,Current,Cardiff South Public School,Lake Ave, ,,CARDIFF SOUTH,NSW,2285,337,,,Entrances on Lake Ave and Fourth St,-32.9526,151.666,1121412,Assisted,1825,161,4,2
2,NSW,Charlton,110,8,Carey Bay,Current,Toronto Scout Hall,74 Excelsior Pde, ,,CAREY BAY,NSW,2283,338,,,Direct from footpath on Excelsior Pde.,-33.02354,151.60382,1120806,Assisted,1217,107,3,1
2,NSW,Charlton,110,8,Coal Point,Current,Coal Point Public School,Coal Point Rd, ,,COAL POINT,NSW,2283,339,,,Two gate entrances on Coal Point Rd and entrance on Rofe St.,-33.0416,151.61,1120807,Assisted,967,61,2,1
2,NSW,Charlton,110,8,Cooranbong,Current,Cooranbong Public School,Government Rd, ,,COORANBONG,NSW,2265,340,,,Access from Government Rd,-33.0789224,151.4411654,1120507,Assisted,1240,121,3,2
2,NSW,Charlton,110,8,Dora Creek,Current,Dora Creek Hall,2 Doree Pl,,,DORA CREEK,NSW,2264,341,,,Direct from footpath on Doree Place.,-33.0845438,151.5020451,1120310,Assisted,1556,168,4,2
2,NSW,Charlton,110,8,Edgeworth,Current,Edgeworth Public School,Minmi Rd,,,EDGEWORTH,NSW,2285,342,,Minmi Rd & Oakville Rd,Entrances from Minmi Rd and Oakville Rd,-32.923776,151.622072,1120107,Assisted,3800,362,8,4
2,NSW,Charlton,110,8,Edgeworth Heights,Current,Hawkins Masonic Retirement Village,Northville Dr, ,,EDGEWORTH,NSW,2285,351,,,Vehicle/pedestrian access off Northville Drive.,-32.9260171,151.6057703,1120203,Assisted,1502,96,4,1
2,NSW,Charlton,110,8,Edgeworth West,Abolition,Cameron Park Community Centre,107 Northlakes Dr,,,CAMERON PARK,NSW,2285,38331,,,,,,0,,0,0,0,0
2,NSW,Charlton,110,8,Elermore Vale,Current,Elermore Vale Public School,Jubilee Rd, ,,ELERMORE VALE,NSW,2287,1869,,,Entrance from Jubilee and Croudace Rds . Watkins Rd access for pedestrians only,-32.9149,151.666,1100510,Assisted,2539,223,6,3
2,NSW,Charlton,110,8,Fassifern,Current,Fassifern Public School,9 Miller Rd, ,,FASSIFERN,NSW,2283,346,,,Driveway and main pedestrian access both in Miller Rd,-32.9832256,151.5832629,1120411,Assisted,770,58,2,1
2,NSW,Charlton,110,8,Fennell Bay,Current,Fennell Bay Public School,Bay Rd, ,,FENNELL BAY,NSW,2283,347,,,Bay Rd near intersection,-32.9923,151.602,1120405,Assisted,1189,130,3,2
2,NSW,Charlton,110,8,Garden Suburb,Current,Garden Suburb Public School,Prospect Rd,,,GARDEN SUBURB,NSW,2289,348,,,Entrance via gates on Prospect Rd and Progress Pl,-32.9440547,151.6782166,1121408,Assisted,1291,233,3,3
2,NSW,Charlton,110,8,Glendale,Current,John Laverty Hall,30 Oakland St,,,GLENDALE,NSW,2285,349,,,Entrance via Oakland St,-32.926605,151.642866,1120208,None,308,30,1,0
2,NSW,Charlton,110,8,Glendale East,Current,Glendale East Public School,8 Margot Ave, ,,GLENDALE,NSW,2285,350,,,"Entrances are Margot Ave, Pandel Ave and Clarence St from carpark.",-32.9272507,151.6539173,1121302,Assisted,1491,101,3,1
2,NSW,Charlton,110,8,Glendore,Current,Glendore Public School,295 Maryland Dr,,,MARYLAND,NSW,2287,34361,,,Entrance to grounds:Gate on Maryland Dr also via carpark Maryland Dr. General access via Garawon Close also.,-32.8737,151.651,1100211,Assisted,1734,129,4,2
2,NSW,Charlton,110,8,Hillsborough (Charlton),Current,Hillsborough Public School,83 Waratah Ave, ,,CHARLESTOWN,NSW,2290,43978,,,Entrance to polling place: Main doors to school hall. Entrance to school grounds: Off Waratah Ave.,-32.9595234,151.6805364,1121512,None,395,9,1,0
2,NSW,Charlton,110,8,Kilaben Bay,Current,Kilaben Bay Community Hall,Kilaben Rd, ,,KILABEN BAY,NSW,2283,354,,,Access from footpath and from parking area at the side.,-33.0256148,151.5939034,1120801,Assisted,611,35,2,1
2,NSW,Charlton,110,8,Lambton (Charlton),Current,St John The Baptist Anglican Church Hall Lambton,Morehead St, ,,LAMBTON,NSW,2299,56830,,,Entrance to polling place: Main door to hall next to the church at rear of block accessed from main gate on Morehead Rd.,-32.9147,151.709,1100708,Assisted,866,23,2,1
2,NSW,Charlton,110,8,Martindale St,Current,Wallsend Public School,Martindale St,,,WALLSEND,NSW,2287,33727,,,Martindale St has two gates open for access.,-32.9083,151.672,1100602,Assisted,1193,159,3,2
2,NSW,Charlton,110,8,Martinsville,Abolition,,,,,,,,360,,,,,,0,,0,0,0,0
2,NSW,Charlton,110,8,Maryland,Current,Maryland Public School,John T Bell Dr, ,,MARYLAND,NSW,2287,1883,,,Entrance to grounds: Main gate and gate via carpark on John T Bell Dr,-32.882,151.659,1100322,Assisted,3155,216,7,2
2,NSW,Charlton,110,8,Minmi,Current,Minmi Progress Hall,100 Woodford St, ,,MINMI,NSW,2287,361,,,"Entrance to polling place: Main door to hall, access on Woodford St.",-32.8838,151.614,1100210,Assisted,675,101,2,1
2,NSW,Charlton,110,8,Morisset,Current,Morisset Public School,Terrigal St, ,,MORISSET,NSW,2264,362,,,Three pedestrian gates - Terrigal St and two carpark gates,-33.1029,151.489,1120513,Assisted,1611,248,4,3
2,NSW,Charlton,110,8,Morisset Peninsula,Current,South Lake Macquarie Amateur Sailing Club,1A Sunshine Pde,,,SUNSHINE,NSW,2264,609,,,Access direct from parking area at 1A Sunshine Pde.,-33.1116124,151.5644421,1120605,Assisted,995,68,2,1
2,NSW,Charlton,110,8,New Lambton Heights,Current,New Lambton Heights Infants School,176 Lookout Rd, ,,NEW LAMBTON HEIGHTS,NSW,2305,2713,,,Access from Lookout Rd and Marshall St.,-32.9347209,151.6889388,1102201,None,762,133,2,2
2,NSW,Charlton,110,8,Pittown,Current,St Patrick's Parish Hall,11 Macquarie St, ,,WALLSEND,NSW,2287,1891,,,Main entrance to hall on Wentworth St. One entry for disabled the other has a number of steps.,-32.9000437,151.6642575,1100505,Assisted,812,102,2,1
2,NSW,Charlton,110,8,Plattsburg,Current,Callaghan College Wallsend Campus,Macquarie St, ,,WALLSEND,NSW,2287,1892,,,Two entrances on Macquarie Street open.,-32.8921027,151.6680192,1100401,None,2105,283,5,3
2,NSW,Charlton,110,8,Rathmines,Current,Rathmines Public School,Secret Corner Rd, ,,RATHMINES,NSW,2283,365,,,Entrances from Secret Corner Rd and Rosemary Row.,-33.04295,151.58944,1120702,Assisted,2433,210,5,2
2,NSW,Charlton,110,8,Silver Ridge,Current,Silver Ridge Community Hall,Iranda Gr, ,,WALLSEND,NSW,2287,1906,,,Access direct from footpath on Iranda Gr,-32.9067,151.683,1100607,Assisted,890,134,2,2
2,NSW,Charlton,110,8,Speers Point,Current,Lake Macquarie City Council Administration Centre,126-138 Main Rd, ,,SPEERS POINT,NSW,2284,367,,,Entrances from Main Rd and Lakeview Rd,-32.960172,151.623426,1121208,Assisted,2217,234,5,3
2,NSW,Charlton,110,8,Sydney (Charlton),Current,Sydney Town Hall,George St, ,,SYDNEY,NSW,2000,14038,,Sydney Town Hall Square,via Town Hall Square,-33.8735,151.207,1400114,Assisted,42,1,0,0
2,NSW,Charlton,110,8,Teralba,Current,Teralba Public School,57 York St, ,,TERALBA,NSW,2284,370,Library,,Entrances from York St and William St,-32.9627,151.606,1120401,Assisted,1041,95,3,1
2,NSW,Charlton,110,8,Toronto,Current,Toronto Multi-Purpose Centre,9 Thorne St,,,TORONTO,NSW,2283,371,,,Access direct from parking area on Thorne St.,-33.0115,151.592,1120907,Assisted,769,74,2,1
2,NSW,Charlton,110,8,Toronto North,Current,Toronto Public School,Carey St, ,,TORONTO,NSW,2283,372,,,Renwick St (pedestrian) and Bay St (car park and pedestrian),-33.0085866,151.5950805,1120908,Assisted,663,75,2,1
2,NSW,Charlton,110,8,Wallsend,Current,Wallsend Uniting Church Hall,19 Metcalfe St,,,WALLSEND,NSW,2287,38205,,,Entrance from Metcalfe St,-32.9047523,151.6699732,1100601,Assisted,1551,213,4,2
2,NSW,Charlton,110,8,Wallsend South,Current,Wallsend South Public School,Smith Rd, ,,ELERMORE VALE,NSW,2287,1901,,,"Entrances from Smith Rd, preferred option and Grandview Rd",-32.9206289,151.6753603,1100608,Assisted,2881,240,6,3
2,NSW,Charlton,110,8,Wangi Wangi,Current,Wangi Wangi Public School,37 Dobell Dr, ,,WANGI WANGI,NSW,2267,375,,,Main entrance and carpark off Dobell Dr. Also Beach Rd via a gate.,-33.0724,151.583,1120711,Assisted,1655,168,4,2
2,NSW,Charlton,110,8,Warners Bay (Charlton),Current,Warners Bay High School,1 Myles Ave, ,,WARNERS BAY,NSW,2282,43974,,,Access from footpath & stairs off Myles Ave in front of main entrance to the MPC Disabled access is to the left of this.,-32.96822,151.6523955,1121102,Assisted,996,33,2,0
2,NSW,Charlton,110,8,Warners Bay North,Current,Lakelands Community Hall,Ambleside Crct,,,LAKELANDS,NSW,2282,32802,,,Only entrance off Ambleside Crct,-32.9656758,151.6487577,1121112,Assisted,1539,136,4,2
2,NSW,Charlton,110,8,West Wallsend,Current,West Wallsend High School,2 Appletree Rd,,,WEST WALLSEND,NSW,2286,379,,,Two entrances on Appletree Rd - one pedestrian & one from carpark.,-32.9112051,151.5822231,1120104,Assisted,2131,162,5,2
2,NSW,Charlton,110,8,Woodrising,Current,Woodrising Neighbourhood Centre,80 Hayden Brook Rd,,,WOODRISING,NSW,2284,31717,,,From carpark at Woodrising Shopping Centre,-32.981997,151.606809,1120413,Assisted,540,38,2,1
2,NSW,Charlton,110,8,Wyee,Current,Wyee Community Hall,100 Wyee Rd,,,WYEE,NSW,2259,623,,,Access from carpark at 100 Wyee Rd,-33.1763429,151.4813612,1120508,Assisted,1521,231,4,3
2,NSW,Charlton,110,8,Wyee Point,Current,Mecca Village,71 Ruttleys Rd, ,,WYEE,NSW,2259,31719,,,Access off parking area on Ruttleys Rd.,-33.1510018,151.523603,1120503,None,242,20,1,0
2,NSW,Chifley,111,9,Arndell Park North,Current,Evans High School,166 Walters Rd,,,BLACKTOWN,NSW,2148,413,,,1. Walters Road Gate.,-33.78707,150.89061,1272513,Assisted,3917,406,8,4
2,NSW,Chifley,111,9,Bidwill,Current,Bidwill Public School,Bunya Rd, ,,BIDWILL,NSW,2770,385,,Bunya Rd,1. Bunya Rd,-33.7339,150.826,1270503,None,1844,157,4,2
2,NSW,Chifley,111,9,Blackett,Current,Blackett Public School,Boldrewood Rd, ,,BLACKETT,NSW,2770,386,,,1. Boldrewood Rd,-33.7395,150.816,1270506,Assisted,1728,174,4,2
2,NSW,Chifley,111,9,Blacktown,Current,Nagle College,58A Orwell St,,,BLACKTOWN,NSW,2148,11947,,,1. Orwell St gates,-33.79014,150.90159,1272413,Assisted,1470,236,3,3
2,NSW,Chifley,111,9,Blacktown Central (Chifley),Appointment,Alpha Park,Alpha Park Centre,Alpha St,,BLACKTOWN,NSW,2148,58849,,Alpha St,,-33.7711626,150.9040383,1271506,Assisted,363,10,1,0
2,NSW,Chifley,111,9,Blacktown South (Chifley),Current,Blacktown South Public School,183 Flushcombe Rd, ,,BLACKTOWN,NSW,2148,388,,,Flushcombe Rd,-33.78035,150.9058,1272408,Assisted,1485,222,3,3
2,NSW,Chifley,111,9,Blacktown West,Current,Blacktown West Public School,Lancaster St, ,,BLACKTOWN,NSW,2148,12049,,,Lancaster Rd,-33.7705,150.893,1271504,Assisted,3273,383,7,4
2,NSW,Chifley,111,9,Dean Park,Current,William Dean Public School,Yarramundi Dr, ,,DEAN PARK,NSW,2761,1027,,,2 gates off Yarramundi Drive,-33.7339,150.858,1271008,Assisted,1753,187,4,2
2,NSW,Chifley,111,9,Dharruk,Current,Dawson Public School,Stuart Rd, ,,DHARRUK,NSW,2770,392,,,1. Stuart Rd,-33.7475,150.817,1270607,None,1607,178,4,2
2,NSW,Chifley,111,9,Doonside,Current,Doonside Public School,Kildare Rd, ,,DOONSIDE,NSW,2767,393,,Kildare Rd,1. Kildare RD,-33.765,150.872,1272301,Assisted,2089,206,5,2
2,NSW,Chifley,111,9,Doonside North,Current,Doonside Technology High School,Power St, ,,DOONSIDE,NSW,2767,1028,,,1. Power St,-33.7563,150.875,1271411,Assisted,4283,394,9,4
2,NSW,Chifley,111,9,Eastern Creek,Current,Eastern Creek Public School,Rooty Hill Rd Sth, ,,EASTERN CREEK,NSW,2766,395,,,1.Cawarra St Pedestrian Gate at rear of   school.,-33.7867,150.853,1270916,None,760,84,2,1
2,NSW,Chifley,111,9,Emerton,Current,Emerton Public School,Hindemith Ave, ,,EMERTON,NSW,2770,396,,,1. Hindemith Ave,-33.7452466,150.8058686,1270407,Assisted,653,63,2,1
2,NSW,Chifley,111,9,Glendenning,Current,Glendenning Public School,Armitage Dr, ,,GLENDENNING,NSW,2761,31463,,,1. Armitage Dr,-33.7425,150.852,1272701,Assisted,2562,228,6,3
2,NSW,Chifley,111,9,Hassall Grove,Current,Hassall Grove Public School,Buckwell Dr, ,,HASSALL GROVE,NSW,2761,31030,,,1. Buckwell Dr,-33.7361,150.84,1273010,Assisted,3348,328,7,3
2,NSW,Chifley,111,9,Hebersham,Current,Hebersham Public School,Andover Cres, ,,HEBERSHAM,NSW,2770,397,,,1. Andover Cres,-33.7477,150.825,1270604,Assisted,2215,194,5,2
2,NSW,Chifley,111,9,Lethbridge Park,Current,Lethbridge Park Public School,Copeland Rd, ,,LETHBRIDGE PARK,NSW,2770,399,,,1. Bouganville Rd,-33.7381603,150.8008757,1270406,None,2028,228,5,3
2,NSW,Chifley,111,9,Marayong,Current,Marayong Public School,Davis Rd, ,,MARAYONG,NSW,2148,1036,,,3 gates off Davis Rd 1 side gate off Richmond Rd.,-33.7565,150.895,1271310,Assisted,2347,459,5,5
2,NSW,Chifley,111,9,Marayong Heights,Current,Marayong Heights Public School,Guerie St, ,,MARAYONG,NSW,2148,1037,,,"1 main gate off Gueire St, 1 gate off Shields st",-33.7429,150.896,1271307,Assisted,1226,163,3,2
2,NSW,Chifley,111,9,Marayong South,Current,Marayong South Public School,McClean St, ,,BLACKTOWN,NSW,2148,1038,,,1.McClean St 2.Tuggerah Place,-33.7606,150.885,1271416,Assisted,1110,115,3,2
2,NSW,Chifley,111,9,Marayong West,Current,St Andrews College JPII Campus,Breakfast Rd,,,MARAYONG,NSW,2148,1030,,,1. Breakfast Road gate,-33.7493,150.889,1271302,Assisted,2164,242,5,3
2,NSW,Chifley,111,9,Marsden Park,Current,Marsden Park Public School,361-363 Garfield Rd W, ,,MARSDEN PARK,NSW,2765,1039,,,2 Gates off Garfield Road West,-33.696,150.834,1270109,None,822,238,2,3
2,NSW,Chifley,111,9,Minchinbury,Current,Minchinbury Public School,McFarlane Dr, ,,MINCHINBURY,NSW,2770,401,,,1. McFarlane Dr- Middle Gate (no steps),-33.7875,150.831,1272503,Assisted,3052,308,7,3
2,NSW,Chifley,111,9,Mount Druitt,Appointment,Kevin Betts Stadium,Ralph Pl,,,MOUNT DRUITT,NSW,2770,402,,,,-33.7672611,150.825511,1270710,Full,1301,209,3,2
2,NSW,Chifley,111,9,Mount Druitt Hospital,Abolition,Kevin Betts Stadium,Ralph Pl,,,MOUNT DRUITT,NSW,2770,402,,,,,,0,,0,0,0,0
2,NSW,Chifley,111,9,Mount Druitt North,Current,Mount Druitt Public School,Belmore Ave, ,,MOUNT DRUITT,NSW,2770,403,,Northern Gate Only,1. Belmore Ave (Northern gate),-33.7639,150.812,1270710,None,2490,280,5,3
2,NSW,Chifley,111,9,Mount Druitt South,Current,Colyton Public School,Nelson St, ,,MOUNT DRUITT,NSW,2770,404,,,1. Nelson St,-33.7749,150.814,1270808,Full,2630,273,6,3
2,NSW,Chifley,111,9,Plumpton,Current,Plumpton Public School,Bottles Rd, ,,PLUMPTON,NSW,2761,406,,,1. Bottles Rd,-33.7491,150.838,1273002,Assisted,4503,329,10,3
2,NSW,Chifley,111,9,Quakers Hill,Current,Quakers Hill Public School,Medlow Dr, ,,QUAKERS HILL,NSW,2763,1046,,,2 gates off Medlow Drive ad 1 gate off Quakers Rd.,-33.7377,150.885,1271309,Assisted,2163,216,5,2
2,NSW,Chifley,111,9,Quakers Hill East (Chifley),Current,Quakers Hill High School,70 Lalor Rd, ,,QUAKERS HILL,NSW,2763,56862,,,2 gates off Lalor Rd,-33.7292,150.896,1271209,Assisted,632,17,2,0
2,NSW,Chifley,111,9,Rooty Hill East,Abolition,,,,,,,,405,,,,,,0,,0,0,0,0
2,NSW,Chifley,111,9,Rooty Hill North,Current,Rooty Hill Public School,Rooty Hill Rd N,,,ROOTY HILL,NSW,2766,407,,Westminster Street,1. Westminster St,-33.769,150.841,1270903,Assisted,3487,297,7,3
2,NSW,Chifley,111,9,Rooty Hill South,Current,Rooty Hill School of Arts,32 Rooty Hill Rd Sth,,,ROOTY HILL,NSW,2766,408,,,1. Rooty Hill Rd Sth,-33.77585,150.84702,1270904,Assisted,2467,190,5,2
2,NSW,Chifley,111,9,Schofields (Chifley),Appointment,Schofields Public School,St Albans Rd, ,,SCHOFIELDS,NSW,2762,58848,,Junction Rd,Junction Rd gate nearest to hall,-33.6923163,150.8749195,1270107,Assisted,308,8,1,0
2,NSW,Chifley,111,9,Shalvey,Current,Shalvey Public School,Laver St, ,,SHALVEY,NSW,2770,411,,,1. Laver St,-33.7278,150.807,1270204,Full,1632,191,4,2
2,NSW,Chifley,111,9,Sydney (Chifley),Current,Sydney Town Hall,George St, ,,SYDNEY,NSW,2000,14039,,Sydney Town Hall Square,via Town Hall Square,-33.8735,151.207,1400114,Assisted,76,2,0,0
2,NSW,Chifley,111,9,Tregear,Current,Tregear Public School,Ellsworth Dr, ,,TREGEAR,NSW,2770,412,,Nunatak La,1. Nunatak lane,-33.7453707,150.7948779,1270305,Assisted,2125,230,5,3
2,NSW,Chifley,111,9,Whalan,Current,Whalan Public School,Karangi Rd, ,,WHALAN,NSW,2770,414,,,1. Karangi Rd,-33.7526,150.81,1270704,Assisted,1668,197,4,2
2,NSW,Chifley,111,9,Whalan South,Current,Madang Avenue Public School,Mimika Ave, ,,WHALAN,NSW,2770,400,,,1. Mimika Ave,-33.7602,150.805,1270701,Assisted,492,79,1,1
2,NSW,Chifley,111,9,Willmot,Current,Willmot Public School,Discovery Ave, ,,WILLMOT,NSW,2770,415,,,1. Discovery Ave,-33.7256,150.794,1270310,Assisted,1215,155,3,2
2,NSW,Chifley,111,9,Woodcroft,Current,New Life Christian Church,240 Richmond Rd, ,,WOODCROFT,NSW,2767,32335,,,Driveway on Richmond Rd.,-33.7496,150.882,1271415,Full,1507,119,4,2
2,NSW,Cook,112,10,Bonnet Bay,Current,Bonnet Bay Public School,34R Tudar Rd, ,,BONNET BAY,NSW,2226,1194,,,Entrance to school grounds from Tudar Rd School grounds are not fenced.,-34.0127882,151.0561757,1310712,Assisted,1312,126,3,2
2,NSW,Cook,112,10,Burraneer Bay,Current,Burraneer Bay Public School,161 Burraneer Bay Rd, ,,BURRANEER,NSW,2230,417,,,Burraneer Bay Rd & Gannons Rd,-34.0507,151.133,1311903,Full,3889,225,8,3
2,NSW,Cook,112,10,Caravan Head,Abolition,,,,,,,,1196,,,,,,0,,0,0,0,0
2,NSW,Cook,112,10,Caringbah,Appointment,Sutherland Hospital Clinic,Kingsway, ,,CARINGBAH,NSW,2229,438,,,Kingsway Main Hospital Entrance,-34.0366,151.115,1311609,Full,622,156,2,2
2,NSW,Cook,112,10,Caringbah Central,Current,St Philip's Anglican Church Hall,402 Port Hacking Rd, ,,CARINGBAH,NSW,2229,419,,Combara Ave,Port Hacking Rd,-34.0462315,151.1230705,1311801,Full,1541,154,4,2
2,NSW,Cook,112,10,Caringbah North,Current,Caringbah High School,85 Willarong Rd, ,,CARINGBAH,NSW,2229,420,,,Willarong Rd,-34.03343,151.121,1311603,Assisted,2559,214,6,2
2,NSW,Cook,112,10,Caringbah South,Current,Caringbah Public School,Port Hacking Rd, ,,CARINGBAH SOUTH,NSW,2229,418,,Actinotus Ave,Actinotus Ave,-34.0537,151.123,1311703,None,3450,224,7,3
2,NSW,Cook,112,10,Caringbah West,Current,Laguna Street Public School,204 Caringbah Rd, ,,CARINGBAH SOUTH,NSW,2229,421,Assemly Hall,Taren Rd only,Laguna St Main Gate & Taren Rd Walkway Cabarita Pl(small gate at back),-34.0459,151.113,1311701,None,2272,127,5,2
2,NSW,Cook,112,10,Como,Current,School of Arts,Novara Cres,,,COMO,NSW,2226,1200,,,Novara Cres,-34.0035493,151.0682789,1310801,Assisted,703,50,2,1
2,NSW,Cook,112,10,Como West,Current,Como West Public School,Wolger St, ,,COMO,NSW,2226,1201,,,2 gated entrances from Taplan St. 2 gated entrances Wolger St(no high fenc ing),-34.0048,151.061,1310704,Assisted,2105,117,5,2
2,NSW,Cook,112,10,Cronulla,Current,Cronulla Public School,18-24 Burraneer Bay Rd, ,,CRONULLA,NSW,2230,422,,,Burraneer Bay Rd,-34.0538,151.148,1312104,None,2207,225,5,3
2,NSW,Cook,112,10,Cronulla Central,Current,Catholic School,18 Giddings Ave, ,,CRONULLA,NSW,2230,423,,,Giddings Ave,-34.0573311,151.1530107,1312107,Assisted,1902,255,4,3
2,NSW,Cook,112,10,Cronulla North,Current,Uniting Church Hall,cnr Burke Rd & Gosport St, ,,CRONULLA,NSW,2230,424,,,Burke Rd,-34.0484489,151.1515928,1312009,Assisted,1660,232,4,3
